{
"RECORDS":[
{
"start_stop_name":"羅斯福新生南路口",
"end_stop_name":"臺大資訊大樓",
"transfer_count":103,
"startlng":121.5331757,
"startlat":25.01603085,
"endlng":121.54153,
"endlat":25.02101
},
{
"start_stop_name":"百齡國小",
"end_stop_name":"捷運劍潭站(2號出口)",
"transfer_count":135,
"startlng":121.519175,
"startlat":25.08521,
"endlng":121.524721,
"endlat":25.082825
},
{
"start_stop_name":"臺大資訊大樓",
"end_stop_name":"羅斯福新生南路口",
"transfer_count":74,
"startlng":121.54153,
"startlat":25.02101,
"endlng":121.5331757,
"endlat":25.01603085
},
{
"start_stop_name":"小金門友誼公園",
"end_stop_name":"捷運七張站(1號出口)",
"transfer_count":129,
"startlng":121.53814,
"startlat":24.977227,
"endlng":121.542767,
"endlat":24.974996
},
{
"start_stop_name":"捷運芝山站(2號出口)",
"end_stop_name":"蘭雅公園",
"transfer_count":130,
"startlng":121.522629,
"startlat":25.10336,
"endlng":121.530386,
"endlat":25.109908
},
{
"start_stop_name":"捷運板橋站(3號出口)",
"end_stop_name":"國光里(國光路)",
"transfer_count":122,
"startlng":121.462051,
"startlat":25.014797,
"endlng":121.458308,
"endlat":25.017755
},
{
"start_stop_name":"土城綜合體育場",
"end_stop_name":"捷運海山站(3號出口)",
"transfer_count":108,
"startlng":121.454211,
"startlat":24.983671,
"endlng":121.449335,
"endlat":24.986923
},
{
"start_stop_name":"捷運劍潭站(2號出口)",
"end_stop_name":"百齡國小",
"transfer_count":122,
"startlng":121.524721,
"startlat":25.082825,
"endlng":121.519175,
"endlat":25.08521
},
{
"start_stop_name":"國立臺北大學(三峽校區)",
"end_stop_name":"恩主公醫院",
"transfer_count":11,
"startlng":121.37326,
"startlat":24.945553,
"endlng":121.363553,
"endlat":24.938912
},
{
"start_stop_name":"恩主公醫院",
"end_stop_name":"國立臺北大學(三峽校區)",
"transfer_count":17,
"startlng":121.363553,
"startlat":24.938912,
"endlng":121.37326,
"endlat":24.945553
},
{
"start_stop_name":"捷運七張站(1號出口)",
"end_stop_name":"小金門友誼公園",
"transfer_count":105,
"startlng":121.542767,
"startlat":24.974996,
"endlng":121.53814,
"endlat":24.977227
},
{
"start_stop_name":"永安公園",
"end_stop_name":"捷運江子翠站(3號出口)",
"transfer_count":101,
"startlng":121.477572,
"startlat":25.024478,
"endlng":121.472359,
"endlat":25.029729
},
{
"start_stop_name":"捷運江子翠站(3號出口)",
"end_stop_name":"永安公園",
"transfer_count":103,
"startlng":121.472359,
"startlat":25.029729,
"endlng":121.477572,
"endlat":25.024478
},
{
"start_stop_name":"基隆長興路口",
"end_stop_name":"捷運公館站(2號出口)",
"transfer_count":88,
"startlng":121.544352,
"startlat":25.017054,
"endlng":121.534538,
"endlat":25.01476
},
{
"start_stop_name":"金城立體停車場",
"end_stop_name":"捷運海山站(3號出口)",
"transfer_count":90,
"startlng":121.458595,
"startlat":24.984102,
"endlng":121.449335,
"endlat":24.986923
},
{
"start_stop_name":"捷運海山站(3號出口)",
"end_stop_name":"金城立體停車場",
"transfer_count":97,
"startlng":121.449335,
"startlat":24.986923,
"endlng":121.458595,
"endlat":24.984102
},
{
"start_stop_name":"國光里(國光路)",
"end_stop_name":"捷運板橋站(3號出口)",
"transfer_count":99,
"startlng":121.458308,
"startlat":25.017755,
"endlng":121.462051,
"endlat":25.014797
},
{
"start_stop_name":"捷運公館站(2號出口)",
"end_stop_name":"臺大資訊大樓",
"transfer_count":67,
"startlng":121.534538,
"startlat":25.01476,
"endlng":121.54153,
"endlat":25.02101
},
{
"start_stop_name":"捷運三重站(3號出口)",
"end_stop_name":"興華公園",
"transfer_count":92,
"startlng":121.484739,
"startlat":25.055883,
"endlng":121.483101,
"endlat":25.060125
},
{
"start_stop_name":"四川遠東路口",
"end_stop_name":"捷運亞東醫院站(2號出口)",
"transfer_count":83,
"startlng":121.457355,
"startlat":24.998003,
"endlng":121.452315,
"endlat":24.99783
},
{
"start_stop_name":"捷運蘆洲站",
"end_stop_name":"永平公園",
"transfer_count":89,
"startlng":121.464031,
"startlat":25.091637,
"endlng":121.459424,
"endlat":25.089987
},
{
"start_stop_name":"永平高中",
"end_stop_name":"捷運頂溪站(1號出口)",
"transfer_count":89,
"startlng":121.509358,
"startlat":25.010163,
"endlng":121.515271,
"endlat":25.012176
},
{
"start_stop_name":"捷運板橋站(1號出口)",
"end_stop_name":"板橋戶政事務所",
"transfer_count":80,
"startlng":121.4619,
"startlat":25.013174,
"endlng":121.456308,
"endlat":25.012839
},
{
"start_stop_name":"臺大資訊大樓",
"end_stop_name":"捷運公館站(2號出口)",
"transfer_count":59,
"startlng":121.54153,
"startlat":25.02101,
"endlng":121.534538,
"endlat":25.01476
},
{
"start_stop_name":"永平公園",
"end_stop_name":"捷運蘆洲站",
"transfer_count":88,
"startlng":121.459424,
"startlat":25.089987,
"endlng":121.464031,
"endlat":25.091637
},
{
"start_stop_name":"蘭雅公園",
"end_stop_name":"捷運芝山站(2號出口)",
"transfer_count":82,
"startlng":121.530386,
"startlat":25.109908,
"endlng":121.522629,
"endlat":25.10336
},
{
"start_stop_name":"捷運三民高中站(1號出口)",
"end_stop_name":"仁愛廣場",
"transfer_count":75,
"startlng":121.472722,
"startlat":25.085815,
"endlng":121.471621,
"endlat":25.090565
},
{
"start_stop_name":"捷運徐匯中學站(1號出口)",
"end_stop_name":"溪墘公園",
"transfer_count":85,
"startlng":121.479852,
"startlat":25.080468,
"endlng":121.476205,
"endlat":25.079969
},
{
"start_stop_name":"溪墘公園",
"end_stop_name":"捷運徐匯中學站(1號出口)",
"transfer_count":89,
"startlng":121.476205,
"startlat":25.079969,
"endlng":121.479852,
"endlat":25.080468
},
{
"start_stop_name":"捷運公館站(2號出口)",
"end_stop_name":"基隆長興路口",
"transfer_count":65,
"startlng":121.534538,
"startlat":25.01476,
"endlng":121.544352,
"endlat":25.017054
},
{
"start_stop_name":"龍門龍濱路口",
"end_stop_name":"捷運三重國小站",
"transfer_count":82,
"startlng":121.500977,
"startlat":25.073475,
"endlng":121.497126,
"endlat":25.070418
},
{
"start_stop_name":"捷運土城站(2號出口)",
"end_stop_name":"員林社區公園",
"transfer_count":83,
"startlng":121.443563,
"startlat":24.972631,
"endlng":121.443237,
"endlat":24.977883
},
{
"start_stop_name":"板橋戶政事務所",
"end_stop_name":"捷運板橋站(1號出口)",
"transfer_count":79,
"startlng":121.456308,
"startlat":25.012839,
"endlng":121.4619,
"endlat":25.013174
},
{
"start_stop_name":"臺灣藝術大學",
"end_stop_name":"捷運府中站(3號出口)",
"transfer_count":60,
"startlng":121.448,
"startlat":25.007502,
"endlng":121.458776,
"endlat":25.008999
},
{
"start_stop_name":"仁愛廣場",
"end_stop_name":"捷運三民高中站(1號出口)",
"transfer_count":75,
"startlng":121.471621,
"startlat":25.090565,
"endlng":121.472722,
"endlat":25.085815
},
{
"start_stop_name":"捷運芝山站(2號出口)",
"end_stop_name":"蘭興公園",
"transfer_count":72,
"startlng":121.522629,
"startlat":25.10336,
"endlng":121.525888,
"endlat":25.111839
},
{
"start_stop_name":"蘭興公園",
"end_stop_name":"捷運芝山站(2號出口)",
"transfer_count":82,
"startlng":121.525888,
"startlat":25.111839,
"endlng":121.522629,
"endlat":25.10336
},
{
"start_stop_name":"捷運海山站(3號出口)",
"end_stop_name":"土城綜合體育場",
"transfer_count":66,
"startlng":121.449335,
"startlat":24.986923,
"endlng":121.454211,
"endlat":24.983671
},
{
"start_stop_name":"興華公園",
"end_stop_name":"捷運三重站(3號出口)",
"transfer_count":70,
"startlng":121.483101,
"startlat":25.060125,
"endlng":121.484739,
"endlat":25.055883
},
{
"start_stop_name":"捷運府中站(3號出口)",
"end_stop_name":"臺灣藝術大學",
"transfer_count":61,
"startlng":121.458776,
"startlat":25.008999,
"endlng":121.448,
"endlat":25.007502
},
{
"start_stop_name":"板橋四維公園",
"end_stop_name":"捷運新埔站(2號出口)",
"transfer_count":69,
"startlng":121.462633,
"startlat":25.025464,
"endlng":121.467598,
"endlat":25.022095
},
{
"start_stop_name":"捷運菜寮站(3號出口)",
"end_stop_name":"修德國小",
"transfer_count":77,
"startlng":121.492198,
"startlat":25.060471,
"endlng":121.49045,
"endlat":25.065295
},
{
"start_stop_name":"捷運亞東醫院站(2號出口)",
"end_stop_name":"四川遠東路口",
"transfer_count":59,
"startlng":121.452315,
"startlat":24.99783,
"endlng":121.457355,
"endlat":24.998003
},
{
"start_stop_name":"捷運亞東醫院站(2號出口)",
"end_stop_name":"華德公園",
"transfer_count":68,
"startlng":121.452315,
"startlat":24.99783,
"endlng":121.45332,
"endlat":24.991683
},
{
"start_stop_name":"樹林火車站(後站)",
"end_stop_name":"文林國小",
"transfer_count":52,
"startlng":121.424652,
"startlat":24.992553,
"endlng":121.42636,
"endlat":24.997856
},
{
"start_stop_name":"捷運新莊站(1號出口)",
"end_stop_name":"新莊棒球場",
"transfer_count":55,
"startlng":121.452069,
"startlat":25.036152,
"endlng":121.446053,
"endlat":25.041603
},
{
"start_stop_name":"捷運頂溪站(1號出口)",
"end_stop_name":"永平高中",
"transfer_count":67,
"startlng":121.515271,
"startlat":25.012176,
"endlng":121.509358,
"endlat":25.010163
},
{
"start_stop_name":"捷運奇岩站",
"end_stop_name":"清江國小",
"transfer_count":72,
"startlng":121.500801,
"startlat":25.126286,
"endlng":121.507267,
"endlat":25.1274
},
{
"start_stop_name":"修德國小",
"end_stop_name":"捷運菜寮站(3號出口)",
"transfer_count":73,
"startlng":121.49045,
"startlat":25.065295,
"endlng":121.492198,
"endlat":25.060471
},
{
"start_stop_name":"捷運頂溪站(1號出口)",
"end_stop_name":"福和國中",
"transfer_count":63,
"startlng":121.515271,
"startlat":25.012176,
"endlng":121.52093,
"endlat":25.005952
},
{
"start_stop_name":"捷運蘆洲站",
"end_stop_name":"永康公園",
"transfer_count":62,
"startlng":121.464031,
"startlat":25.091637,
"endlng":121.458733,
"endlat":25.084764
},
{
"start_stop_name":"新北市藝文中心",
"end_stop_name":"捷運江子翠站(3號出口)",
"transfer_count":63,
"startlng":121.472279,
"startlat":25.026542,
"endlng":121.472359,
"endlat":25.029729
},
{
"start_stop_name":"捷運三重國小站",
"end_stop_name":"龍門龍濱路口",
"transfer_count":66,
"startlng":121.497126,
"startlat":25.070418,
"endlng":121.500977,
"endlat":25.073475
},
{
"start_stop_name":"捷運南勢角站1號出口",
"end_stop_name":"華夏科技大學",
"transfer_count":55,
"startlng":121.506978,
"startlat":24.990804,
"endlng":121.507652,
"endlat":24.980672
},
{
"start_stop_name":"民生公園",
"end_stop_name":"捷運新埔站(4號出口)",
"transfer_count":49,
"startlng":121.475894,
"startlat":25.013087,
"endlng":121.468559,
"endlat":25.023491
},
{
"start_stop_name":"員林社區公園",
"end_stop_name":"捷運土城站(2號出口)",
"transfer_count":65,
"startlng":121.443237,
"startlat":24.977883,
"endlng":121.443563,
"endlat":24.972631
},
{
"start_stop_name":"捷運江子翠站(3號出口)",
"end_stop_name":"音樂公園",
"transfer_count":53,
"startlng":121.472359,
"startlat":25.029729,
"endlng":121.48046,
"endlat":25.028631
},
{
"start_stop_name":"捷運劍南路站(2號出口)",
"end_stop_name":"文湖國小",
"transfer_count":63,
"startlng":121.555116,
"startlat":25.08418,
"endlng":121.560888,
"endlat":25.086376
},
{
"start_stop_name":"信義建國路口",
"end_stop_name":"建國和平路口",
"transfer_count":58,
"startlng":121.53747,
"startlat":25.03293,
"endlng":121.537383,
"endlat":25.02585
},
{
"start_stop_name":"新莊棒球場",
"end_stop_name":"捷運新莊站(1號出口)",
"transfer_count":65,
"startlng":121.446053,
"startlat":25.041603,
"endlng":121.452069,
"endlat":25.036152
},
{
"start_stop_name":"華德公園",
"end_stop_name":"捷運亞東醫院站(2號出口)",
"transfer_count":69,
"startlng":121.45332,
"startlat":24.991683,
"endlng":121.452315,
"endlat":24.99783
},
{
"start_stop_name":"音樂公園",
"end_stop_name":"捷運江子翠站(3號出口)",
"transfer_count":59,
"startlng":121.48046,
"startlat":25.028631,
"endlng":121.472359,
"endlat":25.029729
},
{
"start_stop_name":"臺北孔廟",
"end_stop_name":"捷運圓山站(2號出口)",
"transfer_count":62,
"startlng":121.515843,
"startlat":25.073306,
"endlng":121.519287,
"endlat":25.071824
},
{
"start_stop_name":"文林國小",
"end_stop_name":"樹林火車站(後站)",
"transfer_count":46,
"startlng":121.42636,
"startlat":24.997856,
"endlng":121.424652,
"endlat":24.992553
},
{
"start_stop_name":"竹圍公園",
"end_stop_name":"捷運竹圍站",
"transfer_count":57,
"startlng":121.463395,
"startlat":25.138234,
"endlng":121.460112,
"endlat":25.137658
},
{
"start_stop_name":"至善臨溪路口",
"end_stop_name":"捷運士林站(2號出口)",
"transfer_count":47,
"startlng":121.5421524,
"startlat":25.09710312,
"endlng":121.526556,
"endlat":25.092546
},
{
"start_stop_name":"龍門公園",
"end_stop_name":"捷運三重國小站",
"transfer_count":60,
"startlng":121.498484,
"startlat":25.074815,
"endlng":121.497126,
"endlat":25.070418
},
{
"start_stop_name":"捷運海山站(3號出口)",
"end_stop_name":"金城立德路口",
"transfer_count":52,
"startlng":121.449335,
"startlat":24.986923,
"endlng":121.465481,
"endlat":24.986691
},
{
"start_stop_name":"福和國中",
"end_stop_name":"捷運頂溪站(1號出口)",
"transfer_count":54,
"startlng":121.52093,
"startlat":25.005952,
"endlng":121.515271,
"endlat":25.012176
},
{
"start_stop_name":"捷運新埔站(4號出口)",
"end_stop_name":"捷運江子翠站(3號出口)",
"transfer_count":38,
"startlng":121.468559,
"startlat":25.023491,
"endlng":121.472359,
"endlat":25.029729
},
{
"start_stop_name":"捷運東門站(4號出口)",
"end_stop_name":"臺灣師範大學(圖書館)",
"transfer_count":47,
"startlng":121.528988,
"startlat":25.0337,
"endlng":121.52889,
"endlat":25.02665
},
{
"start_stop_name":"捷運頂埔站(2號出口)",
"end_stop_name":"頂新祖田市民活動中心",
"transfer_count":58,
"startlng":121.419008,
"startlat":24.959276,
"endlng":121.411701,
"endlat":24.952762
},
{
"start_stop_name":"台灣科技大學",
"end_stop_name":"羅斯福新生南路口",
"transfer_count":21,
"startlng":121.539723,
"startlat":25.0131,
"endlng":121.5331757,
"endlat":25.01603085
},
{
"start_stop_name":"捷運三民高中站(1號出口)",
"end_stop_name":"中原公園",
"transfer_count":42,
"startlng":121.472722,
"startlat":25.085815,
"endlng":121.463894,
"endlat":25.083316
},
{
"start_stop_name":"中原公園",
"end_stop_name":"捷運三民高中站(1號出口)",
"transfer_count":51,
"startlng":121.463894,
"startlat":25.083316,
"endlng":121.472722,
"endlat":25.085815
},
{
"start_stop_name":"青山廣場",
"end_stop_name":"捷運海山站(3號出口)",
"transfer_count":54,
"startlng":121.459751,
"startlat":24.977837,
"endlng":121.449335,
"endlat":24.986923
},
{
"start_stop_name":"建國和平路口",
"end_stop_name":"信義建國路口",
"transfer_count":54,
"startlng":121.537383,
"startlat":25.02585,
"endlng":121.53747,
"endlat":25.03293
},
{
"start_stop_name":"大業大同街口",
"end_stop_name":"捷運北投站",
"transfer_count":59,
"startlng":121.499152,
"startlat":25.136929,
"endlng":121.498618,
"endlat":25.132581
},
{
"start_stop_name":"清江國小",
"end_stop_name":"捷運奇岩站",
"transfer_count":59,
"startlng":121.507267,
"startlat":25.1274,
"endlng":121.500801,
"endlat":25.126286
},
{
"start_stop_name":"中港國小",
"end_stop_name":"捷運新莊站(1號出口)",
"transfer_count":47,
"startlng":121.447639,
"startlat":25.046418,
"endlng":121.452069,
"endlat":25.036152
},
{
"start_stop_name":"捷運海山站(3號出口)",
"end_stop_name":"青山廣場",
"transfer_count":49,
"startlng":121.449335,
"startlat":24.986923,
"endlng":121.459751,
"endlat":24.977837
},
{
"start_stop_name":"學成大義路口",
"end_stop_name":"國立臺北大學(三峽校區)",
"transfer_count":1,
"startlng":121.378671,
"startlat":24.945099,
"endlng":121.37326,
"endlat":24.945553
},
{
"start_stop_name":"新莊體育館",
"end_stop_name":"捷運新莊站(1號出口)",
"transfer_count":44,
"startlng":121.452459,
"startlat":25.040766,
"endlng":121.452069,
"endlat":25.036152
},
{
"start_stop_name":"新泰公園",
"end_stop_name":"捷運新莊站(1號出口)",
"transfer_count":48,
"startlng":121.444946,
"startlat":25.0372,
"endlng":121.452069,
"endlat":25.036152
},
{
"start_stop_name":"鶯歌火車站(仁愛路)",
"end_stop_name":"建國育英路口",
"transfer_count":42,
"startlng":121.354376,
"startlat":24.955591,
"endlng":121.347193,
"endlat":24.952761
},
{
"start_stop_name":"中華里(中華路二段)",
"end_stop_name":"捷運新莊站(1號出口)",
"transfer_count":42,
"startlng":121.453766,
"startlat":25.045951,
"endlng":121.452069,
"endlat":25.036152
},
{
"start_stop_name":"捷運府中站(3號出口)",
"end_stop_name":"板橋戶政事務所",
"transfer_count":42,
"startlng":121.458776,
"startlat":25.008999,
"endlng":121.456308,
"endlat":25.012839
},
{
"start_stop_name":"和平重慶路口",
"end_stop_name":"南昌公園",
"transfer_count":51,
"startlng":121.516385,
"startlat":25.027323,
"endlng":121.520258,
"endlat":25.026827
},
{
"start_stop_name":"柳堤公園",
"end_stop_name":"捷運蘆洲站",
"transfer_count":59,
"startlng":121.462192,
"startlat":25.087989,
"endlng":121.464031,
"endlat":25.091637
},
{
"start_stop_name":"聯合醫院板橋院區",
"end_stop_name":"捷運新埔站(2號出口)",
"transfer_count":59,
"startlng":121.457773,
"startlat":25.023832,
"endlng":121.467598,
"endlat":25.022095
},
{
"start_stop_name":"捷運新莊站(1號出口)",
"end_stop_name":"中港國小",
"transfer_count":47,
"startlng":121.452069,
"startlat":25.036152,
"endlng":121.447639,
"endlat":25.046418
},
{
"start_stop_name":"捷運江子翠站(3號出口)",
"end_stop_name":"新北市藝文中心",
"transfer_count":50,
"startlng":121.472359,
"startlat":25.029729,
"endlng":121.472279,
"endlat":25.026542
},
{
"start_stop_name":"三重商工",
"end_stop_name":"聯邦公園",
"transfer_count":12,
"startlng":121.480705,
"startlat":25.068681,
"endlng":121.48371,
"endlat":25.064447
},
{
"start_stop_name":"捷運新埔站(2號出口)",
"end_stop_name":"板橋四維公園",
"transfer_count":55,
"startlng":121.467598,
"startlat":25.022095,
"endlng":121.462633,
"endlat":25.025464
},
{
"start_stop_name":"文化機車立體停車場",
"end_stop_name":"捷運淡水站",
"transfer_count":27,
"startlng":121.438806,
"startlat":25.172485,
"endlng":121.444183,
"endlat":25.168826
},
{
"start_stop_name":"捷運芝山站(2號出口)",
"end_stop_name":"天母運動公園",
"transfer_count":44,
"startlng":121.522629,
"startlat":25.10336,
"endlng":121.534136,
"endlat":25.116325
},
{
"start_stop_name":"板橋仁愛公園",
"end_stop_name":"捷運亞東醫院站(2號出口)",
"transfer_count":45,
"startlng":121.459696,
"startlat":24.99643,
"endlng":121.452315,
"endlat":24.99783
},
{
"start_stop_name":"臺大資訊大樓",
"end_stop_name":"捷運科技大樓站",
"transfer_count":46,
"startlng":121.54153,
"startlat":25.02101,
"endlng":121.543293,
"endlat":25.025896
},
{
"start_stop_name":"華夏科技大學",
"end_stop_name":"捷運南勢角站1號出口",
"transfer_count":48,
"startlng":121.507652,
"startlat":24.980672,
"endlng":121.506978,
"endlat":24.990804
},
{
"start_stop_name":"捷運亞東醫院站(2號出口)",
"end_stop_name":"浮洲合宜住宅(合安一路)",
"transfer_count":48,
"startlng":121.452315,
"startlat":24.99783,
"endlng":121.446343,
"endlat":24.999329
},
{
"start_stop_name":"浮洲合宜住宅(合安一路)",
"end_stop_name":"捷運亞東醫院站(2號出口)",
"transfer_count":45,
"startlng":121.446343,
"startlat":24.999329,
"endlng":121.452315,
"endlat":24.99783
},
{
"start_stop_name":"捷運新莊站(1號出口)",
"end_stop_name":"新泰公園",
"transfer_count":47,
"startlng":121.452069,
"startlat":25.036152,
"endlng":121.444946,
"endlat":25.0372
},
{
"start_stop_name":"五福里(五華街)",
"end_stop_name":"捷運三和國中站(1號出口)",
"transfer_count":41,
"startlng":121.493902,
"startlat":25.081725,
"endlng":121.487795,
"endlat":25.075881
},
{
"start_stop_name":"雨農國小",
"end_stop_name":"捷運芝山站(2號出口)",
"transfer_count":50,
"startlng":121.52922058,
"startlat":25.1054287,
"endlng":121.522629,
"endlat":25.10336
},
{
"start_stop_name":"板林溪北路口",
"end_stop_name":"溪洲公園停車場",
"transfer_count":30,
"startlng":121.42635,
"startlat":24.990555,
"endlng":121.42682,
"endlat":24.986723
},
{
"start_stop_name":"捷運新莊站(1號出口)",
"end_stop_name":"中華里(中華路二段)",
"transfer_count":30,
"startlng":121.452069,
"startlat":25.036152,
"endlng":121.453766,
"endlat":25.045951
},
{
"start_stop_name":"板橋和平公園",
"end_stop_name":"捷運府中站(3號出口)",
"transfer_count":35,
"startlng":121.464326,
"startlat":24.997679,
"endlng":121.458776,
"endlat":25.008999
},
{
"start_stop_name":"捷運圓山站(2號出口)",
"end_stop_name":"臺北孔廟",
"transfer_count":46,
"startlng":121.519287,
"startlat":25.071824,
"endlng":121.515843,
"endlat":25.073306
},
{
"start_stop_name":"文湖國小",
"end_stop_name":"捷運劍南路站(2號出口)",
"transfer_count":42,
"startlng":121.560888,
"startlat":25.086376,
"endlng":121.555116,
"endlat":25.08418
},
{
"start_stop_name":"捷運三重國小站",
"end_stop_name":"龍門公園",
"transfer_count":43,
"startlng":121.497126,
"startlat":25.070418,
"endlng":121.498484,
"endlat":25.074815
},
{
"start_stop_name":"捷運芝山站(2號出口)",
"end_stop_name":"臺北市立大學(天母校區)",
"transfer_count":46,
"startlng":121.522629,
"startlat":25.10336,
"endlng":121.53742,
"endlat":25.113625
},
{
"start_stop_name":"捷運蘆洲站",
"end_stop_name":"柳堤公園",
"transfer_count":50,
"startlng":121.464031,
"startlat":25.091637,
"endlng":121.462192,
"endlat":25.087989
},
{
"start_stop_name":"捷運江子翠站(3號出口)",
"end_stop_name":"潤泰社區",
"transfer_count":35,
"startlng":121.472359,
"startlat":25.029729,
"endlng":121.479375,
"endlat":25.017953
},
{
"start_stop_name":"捷運新北投站",
"end_stop_name":"捷運北投站",
"transfer_count":35,
"startlng":121.503124,
"startlat":25.137456,
"endlng":121.498618,
"endlat":25.132581
},
{
"start_stop_name":"捷運丹鳳站(1號出口)",
"end_stop_name":"四維公園",
"transfer_count":45,
"startlng":121.422799,
"startlat":25.029032,
"endlng":121.422185,
"endlat":25.021308
},
{
"start_stop_name":"捷運科技大樓站",
"end_stop_name":"臺大資訊大樓",
"transfer_count":46,
"startlng":121.543293,
"startlat":25.025896,
"endlng":121.54153,
"endlat":25.02101
},
{
"start_stop_name":"捷運頂埔站(2號出口)",
"end_stop_name":"頂埔國小",
"transfer_count":37,
"startlng":121.419008,
"startlat":24.959276,
"endlng":121.414421,
"endlat":24.956343
},
{
"start_stop_name":"捷運江子翠站(3號出口)",
"end_stop_name":"捷運新埔站(4號出口)",
"transfer_count":28,
"startlng":121.472359,
"startlat":25.029729,
"endlng":121.468559,
"endlat":25.023491
},
{
"start_stop_name":"捷運徐匯中學站(1號出口)",
"end_stop_name":"重陽公園",
"transfer_count":41,
"startlng":121.479852,
"startlat":25.080468,
"endlng":121.483618,
"endlat":25.085688
},
{
"start_stop_name":"永康公園",
"end_stop_name":"捷運蘆洲站",
"transfer_count":48,
"startlng":121.458733,
"startlat":25.084764,
"endlng":121.464031,
"endlat":25.091637
},
{
"start_stop_name":"金城立德路口",
"end_stop_name":"捷運海山站(3號出口)",
"transfer_count":31,
"startlng":121.465481,
"startlat":24.986691,
"endlng":121.449335,
"endlat":24.986923
},
{
"start_stop_name":"羅斯福新生南路口",
"end_stop_name":"台灣科技大學",
"transfer_count":19,
"startlng":121.5331757,
"startlat":25.01603085,
"endlng":121.539723,
"endlat":25.0131
},
{
"start_stop_name":"羅斯福新生南路口",
"end_stop_name":"基隆長興路口",
"transfer_count":21,
"startlng":121.5331757,
"startlat":25.01603085,
"endlng":121.544352,
"endlat":25.017054
},
{
"start_stop_name":"捷運三和國中站(1號出口)",
"end_stop_name":"五福里(五華街)",
"transfer_count":31,
"startlng":121.487795,
"startlat":25.075881,
"endlng":121.493902,
"endlat":25.081725
},
{
"start_stop_name":"板林溪北路口",
"end_stop_name":"溪北公園",
"transfer_count":33,
"startlng":121.42635,
"startlat":24.990555,
"endlng":121.432281,
"endlat":24.99006
},
{
"start_stop_name":"頂新祖田市民活動中心",
"end_stop_name":"捷運頂埔站(2號出口)",
"transfer_count":45,
"startlng":121.411701,
"startlat":24.952762,
"endlng":121.419008,
"endlat":24.959276
},
{
"start_stop_name":"捷運港墘站(2號出口)",
"end_stop_name":"瑞湖陽光街口",
"transfer_count":49,
"startlng":121.575458,
"startlat":25.079681,
"endlng":121.57596588,
"endlat":25.07311821
},
{
"start_stop_name":"臺灣師範大學(圖書館)",
"end_stop_name":"師範大學公館校區",
"transfer_count":2,
"startlng":121.52889,
"startlat":25.02665,
"endlng":121.537188,
"endlat":25.007528
},
{
"start_stop_name":"新北市政府(新府路)",
"end_stop_name":"板橋第一運動場",
"transfer_count":43,
"startlng":121.464224,
"startlat":25.012374,
"endlng":121.468258,
"endlat":25.009147
},
{
"start_stop_name":"捷運北投站",
"end_stop_name":"捷運新北投站",
"transfer_count":37,
"startlng":121.498618,
"startlat":25.132581,
"endlng":121.503124,
"endlat":25.137456
},
{
"start_stop_name":"國立臺北大學(三峽校區)",
"end_stop_name":"學成大義路口",
"transfer_count":1,
"startlng":121.37326,
"startlat":24.945553,
"endlng":121.378671,
"endlat":24.945099
},
{
"start_stop_name":"三重永豐公園",
"end_stop_name":"永盛公園",
"transfer_count":27,
"startlng":121.478162,
"startlat":25.074629,
"endlng":121.484304,
"endlat":25.076133
},
{
"start_stop_name":"億光電子(樹林高中)",
"end_stop_name":"板林溪北路口",
"transfer_count":30,
"startlng":121.423601,
"startlat":24.983567,
"endlng":121.42635,
"endlat":24.990555
},
{
"start_stop_name":"板橋信義公園",
"end_stop_name":"捷運亞東醫院站(2號出口)",
"transfer_count":43,
"startlng":121.456476,
"startlat":24.996183,
"endlng":121.452315,
"endlat":24.99783
},
{
"start_stop_name":"捷運丹鳳站(1號出口)",
"end_stop_name":"福營行政中心",
"transfer_count":38,
"startlng":121.422799,
"startlat":25.029032,
"endlng":121.42387,
"endlat":25.024125
},
{
"start_stop_name":"永和耕莘醫院",
"end_stop_name":"捷運頂溪站(1號出口)",
"transfer_count":44,
"startlng":121.517701,
"startlat":25.011232,
"endlng":121.515271,
"endlat":25.012176
},
{
"start_stop_name":"捷運板橋站(3號出口)",
"end_stop_name":"板橋國民運動中心",
"transfer_count":28,
"startlng":121.462051,
"startlat":25.014797,
"endlng":121.458152,
"endlat":25.022235
},
{
"start_stop_name":"景安板南路口",
"end_stop_name":"中和地政事務所",
"transfer_count":38,
"startlng":121.504443,
"startlat":24.992249,
"endlng":121.502397,
"endlat":24.990393
},
{
"start_stop_name":"板橋第一運動場",
"end_stop_name":"新北市政府(新府路)",
"transfer_count":39,
"startlng":121.468258,
"startlat":25.009147,
"endlng":121.464224,
"endlat":25.012374
},
{
"start_stop_name":"捷運三和國中站(1號出口)",
"end_stop_name":"和平公園",
"transfer_count":42,
"startlng":121.487795,
"startlat":25.075881,
"endlng":121.485712,
"endlat":25.070884
},
{
"start_stop_name":"新月橋",
"end_stop_name":"捷運新莊站 ( 2號出口 )",
"transfer_count":43,
"startlng":121.450011,
"startlat":25.0323,
"endlng":121.452792,
"endlat":25.036075
},
{
"start_stop_name":"南昌公園",
"end_stop_name":"和平重慶路口",
"transfer_count":40,
"startlng":121.520258,
"startlat":25.026827,
"endlng":121.516385,
"endlat":25.027323
},
{
"start_stop_name":"和平公園",
"end_stop_name":"捷運三和國中站(1號出口)",
"transfer_count":41,
"startlng":121.485712,
"startlat":25.070884,
"endlng":121.487795,
"endlat":25.075881
},
{
"start_stop_name":"捷運劍南路站(2號出口)",
"end_stop_name":"樂群二敬業四路口",
"transfer_count":42,
"startlng":121.555116,
"startlat":25.08418,
"endlng":121.558135,
"endlat":25.079766
},
{
"start_stop_name":"捷運新埔站(4號出口)",
"end_stop_name":"新北市藝文中心",
"transfer_count":26,
"startlng":121.468559,
"startlat":25.023491,
"endlng":121.472279,
"endlat":25.026542
},
{
"start_stop_name":"捷運亞東醫院站(2號出口)",
"end_stop_name":"板橋仁愛公園",
"transfer_count":34,
"startlng":121.452315,
"startlat":24.99783,
"endlng":121.459696,
"endlat":24.99643
},
{
"start_stop_name":"古亭國中",
"end_stop_name":"南昌公園",
"transfer_count":11,
"startlng":121.51057,
"startlat":25.024487,
"endlng":121.520258,
"endlat":25.026827
},
{
"start_stop_name":"板橋國民運動中心",
"end_stop_name":"捷運新埔站(2號出口)",
"transfer_count":40,
"startlng":121.458152,
"startlat":25.022235,
"endlng":121.467598,
"endlat":25.022095
},
{
"start_stop_name":"師範大學公館校區",
"end_stop_name":"臺灣師範大學(圖書館)",
"transfer_count":0,
"startlng":121.537188,
"startlat":25.007528,
"endlng":121.52889,
"endlat":25.02665
},
{
"start_stop_name":"柴埕市民活動中心",
"end_stop_name":"安成安德街口",
"transfer_count":6,
"startlng":121.516479,
"startlat":24.966775,
"endlng":121.509988,
"endlat":24.961147
},
{
"start_stop_name":"永盛公園",
"end_stop_name":"三重永豐公園",
"transfer_count":28,
"startlng":121.484304,
"startlat":25.076133,
"endlng":121.478162,
"endlat":25.074629
},
{
"start_stop_name":"捷運府中站(3號出口)",
"end_stop_name":"板橋和平公園",
"transfer_count":29,
"startlng":121.458776,
"startlat":25.008999,
"endlng":121.464326,
"endlat":24.997679
},
{
"start_stop_name":"捷運七張站(1號出口)",
"end_stop_name":"中正國小",
"transfer_count":30,
"startlng":121.542767,
"startlat":24.974996,
"endlng":121.536296,
"endlat":24.971496
},
{
"start_stop_name":"捷運新埔站(4號出口)",
"end_stop_name":"民生公園",
"transfer_count":33,
"startlng":121.468559,
"startlat":25.023491,
"endlng":121.475894,
"endlat":25.013087
},
{
"start_stop_name":"捷運頭前庄站(1號出口)",
"end_stop_name":"臺北醫院",
"transfer_count":41,
"startlng":121.460856,
"startlat":25.039365,
"endlng":121.459772,
"endlat":25.043536
},
{
"start_stop_name":"溪洲公園停車場",
"end_stop_name":"板林溪北路口",
"transfer_count":28,
"startlng":121.42682,
"startlat":24.986723,
"endlng":121.42635,
"endlat":24.990555
},
{
"start_stop_name":"板橋國民運動中心",
"end_stop_name":"捷運板橋站(3號出口)",
"transfer_count":34,
"startlng":121.458152,
"startlat":25.022235,
"endlng":121.462051,
"endlat":25.014797
},
{
"start_stop_name":"捷運北投站",
"end_stop_name":"國防大學",
"transfer_count":38,
"startlng":121.498618,
"startlat":25.132581,
"endlng":121.493066,
"endlat":25.137976
},
{
"start_stop_name":"福營行政中心",
"end_stop_name":"捷運丹鳳站(1號出口)",
"transfer_count":40,
"startlng":121.42387,
"startlat":25.024125,
"endlng":121.422799,
"endlat":25.029032
},
{
"start_stop_name":"捷運圓山站(2號出口)",
"end_stop_name":"酒泉延平路口",
"transfer_count":33,
"startlng":121.519287,
"startlat":25.071824,
"endlng":121.510195,
"endlat":25.072228
},
{
"start_stop_name":"捷運士林站(2號出口)",
"end_stop_name":"士林運動中心",
"transfer_count":28,
"startlng":121.526556,
"startlat":25.092546,
"endlng":121.521814,
"endlat":25.089175
},
{
"start_stop_name":"重陽國小",
"end_stop_name":"捷運菜寮站(3號出口)",
"transfer_count":39,
"startlng":121.484337,
"startlat":25.066245,
"endlng":121.492198,
"endlat":25.060471
},
{
"start_stop_name":"捷運新埔站(2號出口)",
"end_stop_name":"民生公園",
"transfer_count":27,
"startlng":121.467598,
"startlat":25.022095,
"endlng":121.475894,
"endlat":25.013087
},
{
"start_stop_name":"捷運大坪林站",
"end_stop_name":"中興寶慶街口",
"transfer_count":33,
"startlng":121.541721,
"startlat":24.983977,
"endlng":121.54195,
"endlat":24.986942
},
{
"start_stop_name":"板橋四維公園",
"end_stop_name":"聯合醫院板橋院區",
"transfer_count":34,
"startlng":121.462633,
"startlat":25.025464,
"endlng":121.457773,
"endlat":25.023832
},
{
"start_stop_name":"仁愛公園",
"end_stop_name":"捷運頂溪站(1號出口)",
"transfer_count":35,
"startlng":121.505825,
"startlat":25.009838,
"endlng":121.515271,
"endlat":25.012176
},
{
"start_stop_name":"重陽公園",
"end_stop_name":"捷運徐匯中學站(1號出口)",
"transfer_count":36,
"startlng":121.483618,
"startlat":25.085688,
"endlng":121.479852,
"endlat":25.080468
},
{
"start_stop_name":"捷運大安森林公園站",
"end_stop_name":"新生和平路口",
"transfer_count":37,
"startlng":121.535161,
"startlat":25.033156,
"endlng":121.53519,
"endlat":25.026217
},
{
"start_stop_name":"樂群二敬業四路口",
"end_stop_name":"捷運劍南路站(2號出口)",
"transfer_count":41,
"startlng":121.558135,
"startlat":25.079766,
"endlng":121.555116,
"endlat":25.08418
},
{
"start_stop_name":"捷運新埔站(2號出口)",
"end_stop_name":"聯合醫院板橋院區",
"transfer_count":34,
"startlng":121.467598,
"startlat":25.022095,
"endlng":121.457773,
"endlat":25.023832
},
{
"start_stop_name":"捷運南勢角站1號出口",
"end_stop_name":"中和地政事務所",
"transfer_count":25,
"startlng":121.506978,
"startlat":24.990804,
"endlng":121.502397,
"endlat":24.990393
},
{
"start_stop_name":"捷運南京三民站(1號出口)",
"end_stop_name":"民生活動中心",
"transfer_count":31,
"startlng":121.563785,
"startlat":25.051518,
"endlng":121.56297,
"endlat":25.059147
},
{
"start_stop_name":"捷運永安市場站",
"end_stop_name":"秀山國小",
"transfer_count":31,
"startlng":121.511588,
"startlat":25.001013,
"endlng":121.521988,
"endlat":24.996151
},
{
"start_stop_name":"捷運竹圍站",
"end_stop_name":"竹圍公園",
"transfer_count":32,
"startlng":121.460112,
"startlat":25.137658,
"endlng":121.463395,
"endlat":25.138234
},
{
"start_stop_name":"北投運動中心",
"end_stop_name":"捷運石牌站(2號出口)",
"transfer_count":32,
"startlng":121.509621,
"startlat":25.116665,
"endlng":121.515677,
"endlat":25.114513
},
{
"start_stop_name":"瑞湖陽光街口",
"end_stop_name":"捷運港墘站(2號出口)",
"transfer_count":39,
"startlng":121.57596588,
"startlat":25.07311821,
"endlng":121.575458,
"endlat":25.079681
},
{
"start_stop_name":"板橋地政事務所",
"end_stop_name":"新北市政府(新府路)",
"transfer_count":20,
"startlng":121.463387,
"startlat":25.007983,
"endlng":121.464224,
"endlat":25.012374
},
{
"start_stop_name":"新莊文化藝術中心",
"end_stop_name":"捷運新莊站(1號出口)",
"transfer_count":29,
"startlng":121.444453,
"startlat":25.04715,
"endlng":121.452069,
"endlat":25.036152
},
{
"start_stop_name":"捷運國父紀念館站(2號出口)",
"end_stop_name":"三張犁",
"transfer_count":29,
"startlng":121.55742,
"startlat":25.041254,
"endlng":121.55762,
"endlat":25.034937
},
{
"start_stop_name":"捷運新埔站(2號出口)",
"end_stop_name":"中山國中",
"transfer_count":30,
"startlng":121.467598,
"startlat":25.022095,
"endlng":121.467509,
"endlat":25.018559
},
{
"start_stop_name":"大豐公園",
"end_stop_name":"捷運北投站",
"transfer_count":32,
"startlng":121.503768,
"startlat":25.131143,
"endlng":121.498618,
"endlat":25.132581
},
{
"start_stop_name":"捷運新莊站 ( 2號出口 )",
"end_stop_name":"新月橋",
"transfer_count":31,
"startlng":121.452792,
"startlat":25.036075,
"endlng":121.450011,
"endlat":25.0323
},
{
"start_stop_name":"潤泰社區",
"end_stop_name":"捷運江子翠站(3號出口)",
"transfer_count":19,
"startlng":121.479375,
"startlat":25.017953,
"endlng":121.472359,
"endlat":25.029729
},
{
"start_stop_name":"新北市政府(新府路)",
"end_stop_name":"板橋地政事務所",
"transfer_count":21,
"startlng":121.464224,
"startlat":25.012374,
"endlng":121.463387,
"endlat":25.007983
},
{
"start_stop_name":"建國育英路口",
"end_stop_name":"鶯歌火車站(仁愛路)",
"transfer_count":22,
"startlng":121.347193,
"startlat":24.952761,
"endlng":121.354376,
"endlat":24.955591
},
{
"start_stop_name":"清水高中",
"end_stop_name":"捷運海山站(3號出口)",
"transfer_count":24,
"startlng":121.465444,
"startlat":24.982756,
"endlng":121.449335,
"endlat":24.986923
},
{
"start_stop_name":"捷運行天宮站(3號出口)",
"end_stop_name":"建國農安街口",
"transfer_count":28,
"startlng":121.533302,
"startlat":25.059978,
"endlng":121.536775,
"endlat":25.065031
},
{
"start_stop_name":"捷運頂溪站(1號出口)",
"end_stop_name":"仁愛公園",
"transfer_count":29,
"startlng":121.515271,
"startlat":25.012176,
"endlng":121.505825,
"endlat":25.009838
},
{
"start_stop_name":"四維公園",
"end_stop_name":"捷運丹鳳站(1號出口)",
"transfer_count":33,
"startlng":121.422185,
"startlat":25.021308,
"endlng":121.422799,
"endlat":25.029032
},
{
"start_stop_name":"莊敬公園",
"end_stop_name":"捷運新埔站(4號出口)",
"transfer_count":34,
"startlng":121.470821,
"startlat":25.020983,
"endlng":121.468559,
"endlat":25.023491
},
{
"start_stop_name":"捷運頭前庄站(1號出口)",
"end_stop_name":"思賢國小",
"transfer_count":36,
"startlng":121.460856,
"startlat":25.039365,
"endlng":121.457716,
"endlat":25.046446
},
{
"start_stop_name":"四川遠東路口",
"end_stop_name":"新北市立圖書館總館",
"transfer_count":16,
"startlng":121.457355,
"startlat":24.998003,
"endlng":121.455524,
"endlat":25.001583
},
{
"start_stop_name":"捷運中山國中站",
"end_stop_name":"榮星花園",
"transfer_count":31,
"startlng":121.544028,
"startlat":25.060632,
"endlng":121.54037,
"endlat":25.06424
},
{
"start_stop_name":"永福橋",
"end_stop_name":"捷運頂溪站(1號出口)",
"transfer_count":32,
"startlng":121.524184,
"startlat":25.010032,
"endlng":121.515271,
"endlat":25.012176
},
{
"start_stop_name":"基隆長興路口",
"end_stop_name":"羅斯福新生南路口",
"transfer_count":8,
"startlng":121.544352,
"startlat":25.017054,
"endlng":121.5331757,
"endlat":25.01603085
},
{
"start_stop_name":"天母運動公園",
"end_stop_name":"捷運芝山站(2號出口)",
"transfer_count":25,
"startlng":121.534136,
"startlat":25.116325,
"endlng":121.522629,
"endlat":25.10336
},
{
"start_stop_name":"捷運新莊站(1號出口)",
"end_stop_name":"新莊文化藝術中心",
"transfer_count":27,
"startlng":121.452069,
"startlat":25.036152,
"endlng":121.444453,
"endlat":25.04715
},
{
"start_stop_name":"南昌公園",
"end_stop_name":"古亭國中",
"transfer_count":29,
"startlng":121.520258,
"startlat":25.026827,
"endlng":121.51057,
"endlat":25.024487
},
{
"start_stop_name":"捷運新埔站(4號出口)",
"end_stop_name":"莊敬公園",
"transfer_count":31,
"startlng":121.468559,
"startlat":25.023491,
"endlng":121.470821,
"endlat":25.020983
},
{
"start_stop_name":"捷運芝山站(2號出口)",
"end_stop_name":"雨農國小",
"transfer_count":31,
"startlng":121.522629,
"startlat":25.10336,
"endlng":121.52922058,
"endlat":25.1054287
},
{
"start_stop_name":"捷運士林站(2號出口)",
"end_stop_name":"至善臨溪路口",
"transfer_count":20,
"startlng":121.526556,
"startlat":25.092546,
"endlng":121.5421524,
"endlat":25.09710312
},
{
"start_stop_name":"捷運新莊站(1號出口)",
"end_stop_name":"黃城公園",
"transfer_count":22,
"startlng":121.452069,
"startlat":25.036152,
"endlng":121.448239,
"endlat":25.052382
},
{
"start_stop_name":"溪北公園",
"end_stop_name":"板林溪北路口",
"transfer_count":24,
"startlng":121.432281,
"startlat":24.99006,
"endlng":121.42635,
"endlat":24.990555
},
{
"start_stop_name":"保安永平路口",
"end_stop_name":"捷運頂溪站(1號出口)",
"transfer_count":24,
"startlng":121.506471,
"startlat":25.012691,
"endlng":121.515271,
"endlat":25.012176
},
{
"start_stop_name":"頂埔國小",
"end_stop_name":"捷運頂埔站(2號出口)",
"transfer_count":25,
"startlng":121.414421,
"startlat":24.956343,
"endlng":121.419008,
"endlat":24.959276
},
{
"start_stop_name":"中華自治街口",
"end_stop_name":"捷運新莊站(1號出口)",
"transfer_count":26,
"startlng":121.453202,
"startlat":25.047855,
"endlng":121.452069,
"endlat":25.036152
},
{
"start_stop_name":"捷運石牌站(2號出口)",
"end_stop_name":"北投運動中心",
"transfer_count":31,
"startlng":121.515677,
"startlat":25.114513,
"endlng":121.509621,
"endlat":25.116665
},
{
"start_stop_name":"捷運板橋站(1號出口)",
"end_stop_name":"捷運府中站(3號出口)",
"transfer_count":22,
"startlng":121.4619,
"startlat":25.013174,
"endlng":121.458776,
"endlat":25.008999
},
{
"start_stop_name":"捷運亞東醫院站(2號出口)",
"end_stop_name":"新北市立圖書館總館",
"transfer_count":27,
"startlng":121.452315,
"startlat":24.99783,
"endlng":121.455524,
"endlat":25.001583
},
{
"start_stop_name":"新北市立圖書館總館",
"end_stop_name":"捷運亞東醫院站(2號出口)",
"transfer_count":20,
"startlng":121.455524,
"startlat":25.001583,
"endlng":121.452315,
"endlat":24.99783
},
{
"start_stop_name":"福和國中",
"end_stop_name":"捷運永安市場站",
"transfer_count":5,
"startlng":121.52093,
"startlat":25.005952,
"endlng":121.511588,
"endlat":25.001013
},
{
"start_stop_name":"中和地政事務所",
"end_stop_name":"捷運南勢角站1號出口",
"transfer_count":24,
"startlng":121.502397,
"startlat":24.990393,
"endlng":121.506978,
"endlat":24.990804
},
{
"start_stop_name":"捷運頂溪站(1號出口)",
"end_stop_name":"永福橋",
"transfer_count":26,
"startlng":121.515271,
"startlat":25.012176,
"endlng":121.524184,
"endlat":25.010032
},
{
"start_stop_name":"士林運動中心",
"end_stop_name":"捷運士林站(2號出口)",
"transfer_count":27,
"startlng":121.521814,
"startlat":25.089175,
"endlng":121.526556,
"endlat":25.092546
},
{
"start_stop_name":"捷運北投站",
"end_stop_name":"大業大同街口",
"transfer_count":32,
"startlng":121.498618,
"startlat":25.132581,
"endlng":121.499152,
"endlat":25.136929
},
{
"start_stop_name":"捷運頂溪站(1號出口)",
"end_stop_name":"永和耕莘醫院",
"transfer_count":29,
"startlng":121.515271,
"startlat":25.012176,
"endlng":121.517701,
"endlat":25.011232
},
{
"start_stop_name":"金城立德路口",
"end_stop_name":"土城綜合體育場",
"transfer_count":9,
"startlng":121.465481,
"startlat":24.986691,
"endlng":121.454211,
"endlat":24.983671
},
{
"start_stop_name":"金城立體停車場",
"end_stop_name":"金城立德路口",
"transfer_count":9,
"startlng":121.458595,
"startlat":24.984102,
"endlng":121.465481,
"endlat":24.986691
},
{
"start_stop_name":"捷運新莊站 ( 2號出口 )",
"end_stop_name":"豐年國小",
"transfer_count":16,
"startlng":121.452792,
"startlat":25.036075,
"endlng":121.44323,
"endlat":25.031278
},
{
"start_stop_name":"鶯歌火車站(仁愛路)",
"end_stop_name":"永昌里兒一公園",
"transfer_count":19,
"startlng":121.354376,
"startlat":24.955591,
"endlng":121.339645,
"endlat":24.956661
},
{
"start_stop_name":"捷運新莊站(1號出口)",
"end_stop_name":"中華自治街口",
"transfer_count":22,
"startlng":121.452069,
"startlat":25.036152,
"endlng":121.453202,
"endlat":25.047855
},
{
"start_stop_name":"上林里(環河東路一段)",
"end_stop_name":"捷運頂溪站(1號出口)",
"transfer_count":25,
"startlng":121.520951,
"startlat":25.014999,
"endlng":121.515271,
"endlat":25.012176
},
{
"start_stop_name":"捷運台北101\/世貿站",
"end_stop_name":"台北市災害應變中心",
"transfer_count":28,
"startlng":121.561645,
"startlat":25.032752,
"endlng":121.5661167,
"endlat":25.02866111
},
{
"start_stop_name":"捷運動物園站(2號出口)",
"end_stop_name":"國立政治大學",
"transfer_count":29,
"startlng":121.578752,
"startlat":24.997659,
"endlng":121.576536,
"endlat":24.988363
},
{
"start_stop_name":"捷運亞東醫院站(2號出口)",
"end_stop_name":"板橋信義公園",
"transfer_count":30,
"startlng":121.452315,
"startlat":24.99783,
"endlng":121.456476,
"endlat":24.996183
},
{
"start_stop_name":"三張犁",
"end_stop_name":"捷運國父紀念館站(2號出口)",
"transfer_count":22,
"startlng":121.55762,
"startlat":25.034937,
"endlng":121.55742,
"endlat":25.041254
},
{
"start_stop_name":"國防大學",
"end_stop_name":"捷運北投站",
"transfer_count":28,
"startlng":121.493066,
"startlat":25.137976,
"endlng":121.498618,
"endlat":25.132581
},
{
"start_stop_name":"板林溪北路口",
"end_stop_name":"億光電子(樹林高中)",
"transfer_count":18,
"startlng":121.42635,
"startlat":24.990555,
"endlng":121.423601,
"endlat":24.983567
},
{
"start_stop_name":"新北市立鶯歌高級工商職業學校",
"end_stop_name":"鶯歌火車站(仁愛路)",
"transfer_count":19,
"startlng":121.334639,
"startlat":24.939095,
"endlng":121.354376,
"endlat":24.955591
},
{
"start_stop_name":"新北市藝文中心",
"end_stop_name":"捷運新埔站(4號出口)",
"transfer_count":21,
"startlng":121.472279,
"startlat":25.026542,
"endlng":121.468559,
"endlat":25.023491
},
{
"start_stop_name":"捷運新埔站(2號出口)",
"end_stop_name":"板橋國民運動中心",
"transfer_count":22,
"startlng":121.467598,
"startlat":25.022095,
"endlng":121.458152,
"endlat":25.022235
},
{
"start_stop_name":"中和公園",
"end_stop_name":"秀朗國小",
"transfer_count":24,
"startlng":121.51435,
"startlat":25.000726,
"endlng":121.522843,
"endlat":24.999392
},
{
"start_stop_name":"保順環河西路口",
"end_stop_name":"捷運頂溪站(1號出口)",
"transfer_count":26,
"startlng":121.503376,
"startlat":25.010786,
"endlng":121.515271,
"endlat":25.012176
},
{
"start_stop_name":"捷運松江南京站(7號出口)",
"end_stop_name":"建國長春路口",
"transfer_count":26,
"startlng":121.533211,
"startlat":25.052181,
"endlng":121.536925,
"endlat":25.054761
},
{
"start_stop_name":"捷運頂溪站(1號出口)",
"end_stop_name":"保順環河西路口",
"transfer_count":32,
"startlng":121.515271,
"startlat":25.012176,
"endlng":121.503376,
"endlat":25.010786
},
{
"start_stop_name":"捷運忠孝復興站(2號出口)",
"end_stop_name":"捷運大安站",
"transfer_count":4,
"startlng":121.543497,
"startlat":25.040184,
"endlng":121.543057,
"endlat":25.033078
},
{
"start_stop_name":"土城綜合體育場",
"end_stop_name":"金城立德路口",
"transfer_count":7,
"startlng":121.454211,
"startlat":24.983671,
"endlng":121.465481,
"endlat":24.986691
},
{
"start_stop_name":"土城綜合體育場",
"end_stop_name":"金城立體停車場",
"transfer_count":7,
"startlng":121.454211,
"startlat":24.983671,
"endlng":121.458595,
"endlat":24.984102
},
{
"start_stop_name":"樹林大安活動中心",
"end_stop_name":"樹林火車站(後站)",
"transfer_count":19,
"startlng":121.41477,
"startlat":24.986391,
"endlng":121.424652,
"endlat":24.992553
},
{
"start_stop_name":"永和耕莘醫院",
"end_stop_name":"福和國中",
"transfer_count":25,
"startlng":121.517701,
"startlat":25.011232,
"endlng":121.52093,
"endlat":25.005952
},
{
"start_stop_name":"新北市立圖書館三重分館",
"end_stop_name":"捷運三重國小站",
"transfer_count":28,
"startlng":121.495529,
"startlat":25.066099,
"endlng":121.497126,
"endlat":25.070418
},
{
"start_stop_name":"後港公園",
"end_stop_name":"捷運丹鳳站(1號出口)",
"transfer_count":30,
"startlng":121.428348,
"startlat":25.025358,
"endlng":121.422799,
"endlat":25.029032
},
{
"start_stop_name":"捷運龍山寺站(1號出口)",
"end_stop_name":"大理高中",
"transfer_count":30,
"startlng":121.50026,
"startlat":25.035479,
"endlng":121.49074,
"endlat":25.031147
},
{
"start_stop_name":"臺灣師範大學(圖書館)",
"end_stop_name":"捷運東門站(4號出口)",
"transfer_count":15,
"startlng":121.52889,
"startlat":25.02665,
"endlng":121.528988,
"endlat":25.0337
},
{
"start_stop_name":"捷運台電大樓站(2號出口)",
"end_stop_name":"羅斯福新生南路口",
"transfer_count":18,
"startlng":121.528552,
"startlat":25.020547,
"endlng":121.5331757,
"endlat":25.01603085
},
{
"start_stop_name":"永豐公園活動中心",
"end_stop_name":"捷運江子翠站(3號出口)",
"transfer_count":21,
"startlng":121.476853,
"startlat":25.021127,
"endlng":121.472359,
"endlat":25.029729
},
{
"start_stop_name":"中山國中",
"end_stop_name":"捷運新埔站(2號出口)",
"transfer_count":23,
"startlng":121.467509,
"startlat":25.018559,
"endlng":121.467598,
"endlat":25.022095
},
{
"start_stop_name":"捷運北投站",
"end_stop_name":"大豐公園",
"transfer_count":29,
"startlng":121.498618,
"startlat":25.132581,
"endlng":121.503768,
"endlat":25.131143
},
{
"start_stop_name":"捷運府中站(3號出口)",
"end_stop_name":"捷運板橋站(1號出口)",
"transfer_count":19,
"startlng":121.458776,
"startlat":25.008999,
"endlng":121.4619,
"endlat":25.013174
},
{
"start_stop_name":"捷運板橋站(3號出口)",
"end_stop_name":"板橋戶政事務所",
"transfer_count":22,
"startlng":121.462051,
"startlat":25.014797,
"endlng":121.456308,
"endlat":25.012839
},
{
"start_stop_name":"榮星花園",
"end_stop_name":"捷運中山國中站",
"transfer_count":25,
"startlng":121.54037,
"startlat":25.06424,
"endlng":121.544028,
"endlat":25.060632
},
{
"start_stop_name":"臺北市立大學",
"end_stop_name":"捷運西門站(3號出口)",
"transfer_count":5,
"startlng":121.514218,
"startlat":25.035414,
"endlng":121.508693,
"endlat":25.041778
},
{
"start_stop_name":"捷運新埔站(2號出口)",
"end_stop_name":"捷運江子翠站(3號出口)",
"transfer_count":12,
"startlng":121.467598,
"startlat":25.022095,
"endlng":121.472359,
"endlat":25.029729
},
{
"start_stop_name":"民生活動中心",
"end_stop_name":"捷運南京三民站(1號出口)",
"transfer_count":24,
"startlng":121.56297,
"startlat":25.059147,
"endlng":121.563785,
"endlat":25.051518
},
{
"start_stop_name":"三重綜合體育館",
"end_stop_name":"修德國小",
"transfer_count":25,
"startlng":121.491926,
"startlat":25.061446,
"endlng":121.49045,
"endlat":25.065295
},
{
"start_stop_name":"捷運土城站(2號出口)",
"end_stop_name":"金城忠義路口",
"transfer_count":28,
"startlng":121.443563,
"startlat":24.972631,
"endlng":121.440808,
"endlat":24.969399
},
{
"start_stop_name":"捷運七張站(1號出口)",
"end_stop_name":"崇光女中",
"transfer_count":28,
"startlng":121.542767,
"startlat":24.974996,
"endlng":121.539554,
"endlat":24.972127
},
{
"start_stop_name":"三張公園",
"end_stop_name":"捷運三重國小站",
"transfer_count":28,
"startlng":121.490935,
"startlat":25.070507,
"endlng":121.497126,
"endlat":25.070418
},
{
"start_stop_name":"伊吉邦社區",
"end_stop_name":"捷運丹鳳站(1號出口)",
"transfer_count":29,
"startlng":121.41339874,
"startlat":25.0301857,
"endlng":121.422799,
"endlat":25.029032
},
{
"start_stop_name":"捷運劍潭站(2號出口)",
"end_stop_name":"士林運動中心",
"transfer_count":30,
"startlng":121.524721,
"startlat":25.082825,
"endlng":121.521814,
"endlat":25.089175
},
{
"start_stop_name":"林口社區運動公園",
"end_stop_name":"麗林公有市場",
"transfer_count":4,
"startlng":121.377001,
"startlat":25.07415,
"endlng":121.367761,
"endlat":25.069123
},
{
"start_stop_name":"金城立體停車場",
"end_stop_name":"土城綜合體育場",
"transfer_count":5,
"startlng":121.458595,
"startlat":24.984102,
"endlng":121.454211,
"endlat":24.983671
},
{
"start_stop_name":"五堵火車站",
"end_stop_name":"保長公園",
"transfer_count":21,
"startlng":121.666869,
"startlat":25.077493,
"endlng":121.674342,
"endlat":25.079523
},
{
"start_stop_name":"松山車站",
"end_stop_name":"捷運後山埤站(1號出口)",
"transfer_count":22,
"startlng":121.578095,
"startlat":25.048616,
"endlng":121.58174,
"endlat":25.04431
},
{
"start_stop_name":"信義建國路口",
"end_stop_name":"臺北市立圖書館(總館)",
"transfer_count":23,
"startlng":121.53747,
"startlat":25.03293,
"endlng":121.538073,
"endlat":25.028798
},
{
"start_stop_name":"捷運大安森林公園站",
"end_stop_name":"建國和平路口",
"transfer_count":23,
"startlng":121.535161,
"startlat":25.033156,
"endlng":121.537383,
"endlat":25.02585
},
{
"start_stop_name":"捷運小巨蛋站(5號出口)",
"end_stop_name":"民生光復路口",
"transfer_count":24,
"startlng":121.553057,
"startlat":25.051702,
"endlng":121.55514,
"endlat":25.05862
},
{
"start_stop_name":"捷運板橋站(1號出口)",
"end_stop_name":"國光里(國光路)",
"transfer_count":24,
"startlng":121.4619,
"startlat":25.013174,
"endlng":121.458308,
"endlat":25.017755
},
{
"start_stop_name":"丹鳳派出所",
"end_stop_name":"捷運迴龍站(3號出口)",
"transfer_count":25,
"startlng":121.414662,
"startlat":25.027694,
"endlng":121.413053,
"endlat":25.02276
},
{
"start_stop_name":"捷運三和國中站(1號出口)",
"end_stop_name":"六合公園",
"transfer_count":25,
"startlng":121.487795,
"startlat":25.075881,
"endlng":121.487588,
"endlat":25.069499
},
{
"start_stop_name":"捷運頭前庄站(1號出口)",
"end_stop_name":"福壽公園",
"transfer_count":26,
"startlng":121.460856,
"startlat":25.039365,
"endlng":121.457746,
"endlat":25.051829
},
{
"start_stop_name":"捷運菜寮站(3號出口)",
"end_stop_name":"重陽國小",
"transfer_count":31,
"startlng":121.492198,
"startlat":25.060471,
"endlng":121.484337,
"endlat":25.066245
},
{
"start_stop_name":"羅斯福新生南路口",
"end_stop_name":"捷運科技大樓站",
"transfer_count":17,
"startlng":121.5331757,
"startlat":25.01603085,
"endlng":121.543293,
"endlat":25.025896
},
{
"start_stop_name":"集成成功路口",
"end_stop_name":"捷運三重站(3號出口)",
"transfer_count":23,
"startlng":121.488208,
"startlat":25.051542,
"endlng":121.484739,
"endlat":25.055883
},
{
"start_stop_name":"板林溪北路口",
"end_stop_name":"崑崙公園",
"transfer_count":14,
"startlng":121.42635,
"startlat":24.990555,
"endlng":121.429636,
"endlat":24.993406
},
{
"start_stop_name":"華齡公園",
"end_stop_name":"捷運劍潭站(2號出口)",
"transfer_count":28,
"startlng":121.52069092,
"startlat":25.08302307,
"endlng":121.524721,
"endlat":25.082825
},
{
"start_stop_name":"集成成功路口",
"end_stop_name":"三重國民運動中心",
"transfer_count":12,
"startlng":121.488208,
"startlat":25.051542,
"endlng":121.488489,
"endlat":25.054391
},
{
"start_stop_name":"建國長春路口",
"end_stop_name":"八德市場",
"transfer_count":0,
"startlng":121.536925,
"startlat":25.054761,
"endlng":121.536609,
"endlat":25.044781
},
{
"start_stop_name":"汐止火車站",
"end_stop_name":"國泰綜合醫院",
"transfer_count":9,
"startlng":121.662748,
"startlat":25.068914,
"endlng":121.662555,
"endlat":25.07315
},
{
"start_stop_name":"捷運古亭站(2號出口)",
"end_stop_name":"臺灣師範大學(圖書館)",
"transfer_count":13,
"startlng":121.523537,
"startlat":25.0253,
"endlng":121.52889,
"endlat":25.02665
},
{
"start_stop_name":"裕隆公園",
"end_stop_name":"捷運大坪林站",
"transfer_count":22,
"startlng":121.546319,
"startlat":24.979649,
"endlng":121.541721,
"endlat":24.983977
},
{
"start_stop_name":"捷運行天宮站(3號出口)",
"end_stop_name":"榮星花園",
"transfer_count":24,
"startlng":121.533302,
"startlat":25.059978,
"endlng":121.54037,
"endlat":25.06424
},
{
"start_stop_name":"辛亥新生路口",
"end_stop_name":"捷運台電大樓站(2號出口)",
"transfer_count":24,
"startlng":121.53456,
"startlat":25.022413,
"endlng":121.528552,
"endlat":25.020547
},
{
"start_stop_name":"厚德公園",
"end_stop_name":"捷運三重國小站",
"transfer_count":24,
"startlng":121.4912,
"startlat":25.071988,
"endlng":121.497126,
"endlat":25.070418
},
{
"start_stop_name":"臺北醫院",
"end_stop_name":"捷運頭前庄站(1號出口)",
"transfer_count":27,
"startlng":121.459772,
"startlat":25.043536,
"endlng":121.460856,
"endlat":25.039365
},
{
"start_stop_name":"自強溪尾街口",
"end_stop_name":"捷運三和國中站(1號出口)",
"transfer_count":24,
"startlng":121.489894,
"startlat":25.078153,
"endlng":121.487795,
"endlat":25.075881
},
{
"start_stop_name":"中和公園",
"end_stop_name":"秀山國小",
"transfer_count":13,
"startlng":121.51435,
"startlat":25.000726,
"endlng":121.521988,
"endlat":24.996151
},
{
"start_stop_name":"板橋車站",
"end_stop_name":"板橋四維公園",
"transfer_count":13,
"startlng":121.463735,
"startlat":25.015519,
"endlng":121.462633,
"endlat":25.025464
},
{
"start_stop_name":"重新重安街口",
"end_stop_name":"三重國民運動中心",
"transfer_count":16,
"startlng":121.489751,
"startlat":25.058443,
"endlng":121.488489,
"endlat":25.054391
},
{
"start_stop_name":"捷運新埔站(4號出口)",
"end_stop_name":"板橋四維公園",
"transfer_count":16,
"startlng":121.468559,
"startlat":25.023491,
"endlng":121.462633,
"endlat":25.025464
},
{
"start_stop_name":"板橋戶政事務所",
"end_stop_name":"捷運府中站(3號出口)",
"transfer_count":19,
"startlng":121.456308,
"startlat":25.012839,
"endlng":121.458776,
"endlat":25.008999
},
{
"start_stop_name":"捷運三重站(3號出口)",
"end_stop_name":"三重國民運動中心",
"transfer_count":21,
"startlng":121.484739,
"startlat":25.055883,
"endlng":121.488489,
"endlat":25.054391
},
{
"start_stop_name":"捷運海山站(3號出口)",
"end_stop_name":"清水高中",
"transfer_count":23,
"startlng":121.449335,
"startlat":24.986923,
"endlng":121.465444,
"endlat":24.982756
},
{
"start_stop_name":"二重國小",
"end_stop_name":"捷運三重站(3號出口)",
"transfer_count":23,
"startlng":121.477656,
"startlat":25.065976,
"endlng":121.484739,
"endlat":25.055883
},
{
"start_stop_name":"新生和平路口",
"end_stop_name":"捷運大安森林公園站",
"transfer_count":26,
"startlng":121.53519,
"startlat":25.026217,
"endlng":121.535161,
"endlat":25.033156
},
{
"start_stop_name":"新北市立圖書館總館",
"end_stop_name":"四川遠東路口",
"transfer_count":7,
"startlng":121.455524,
"startlat":25.001583,
"endlng":121.457355,
"endlat":24.998003
},
{
"start_stop_name":"板橋戶政事務所",
"end_stop_name":"捷運板橋站(3號出口)",
"transfer_count":14,
"startlng":121.456308,
"startlat":25.012839,
"endlng":121.462051,
"endlat":25.014797
},
{
"start_stop_name":"捷運新莊站(1號出口)",
"end_stop_name":"新莊體育館",
"transfer_count":15,
"startlng":121.452069,
"startlat":25.036152,
"endlng":121.452459,
"endlat":25.040766
},
{
"start_stop_name":"捷運菜寮站(3號出口)",
"end_stop_name":"聯邦公園",
"transfer_count":18,
"startlng":121.492198,
"startlat":25.060471,
"endlng":121.48371,
"endlat":25.064447
},
{
"start_stop_name":"建國農安街口",
"end_stop_name":"捷運行天宮站(3號出口)",
"transfer_count":21,
"startlng":121.536775,
"startlat":25.065031,
"endlng":121.533302,
"endlat":25.059978
},
{
"start_stop_name":"捷運港墘站(2號出口)",
"end_stop_name":"瑞光港墘路口",
"transfer_count":22,
"startlng":121.575458,
"startlat":25.079681,
"endlng":121.57505,
"endlat":25.076193
},
{
"start_stop_name":"捷運三重國小站",
"end_stop_name":"新北市立圖書館三重分館",
"transfer_count":24,
"startlng":121.497126,
"startlat":25.070418,
"endlng":121.495529,
"endlat":25.066099
},
{
"start_stop_name":"臺北市立大學(天母校區)",
"end_stop_name":"捷運芝山站(2號出口)",
"transfer_count":24,
"startlng":121.53742,
"startlat":25.113625,
"endlng":121.522629,
"endlat":25.10336
},
{
"start_stop_name":"蘆洲國民運動中心",
"end_stop_name":"捷運蘆洲站",
"transfer_count":26,
"startlng":121.461613,
"startlat":25.091945,
"endlng":121.464031,
"endlat":25.091637
},
{
"start_stop_name":"捷運板橋站(1號出口)",
"end_stop_name":"板橋地政事務所",
"transfer_count":19,
"startlng":121.4619,
"startlat":25.013174,
"endlng":121.463387,
"endlat":25.007983
},
{
"start_stop_name":"捷運後山埤站(1號出口)",
"end_stop_name":"松山車站",
"transfer_count":22,
"startlng":121.58174,
"startlat":25.04431,
"endlng":121.578095,
"endlat":25.048616
},
{
"start_stop_name":"臺北市立大學",
"end_stop_name":"中華桂林路口",
"transfer_count":4,
"startlng":121.514218,
"startlat":25.035414,
"endlng":121.506624,
"endlat":25.037706
},
{
"start_stop_name":"福和國中",
"end_stop_name":"永和國小",
"transfer_count":11,
"startlng":121.52093,
"startlat":25.005952,
"endlng":121.517442,
"endlat":25.002272
},
{
"start_stop_name":"捷運科技大樓站",
"end_stop_name":"捷運大安站",
"transfer_count":12,
"startlng":121.543293,
"startlat":25.025896,
"endlng":121.543057,
"endlat":25.033078
},
{
"start_stop_name":"中興寶慶街口",
"end_stop_name":"捷運大坪林站",
"transfer_count":16,
"startlng":121.54195,
"startlat":24.986942,
"endlng":121.541721,
"endlat":24.983977
},
{
"start_stop_name":"捷運新埔站(4號出口)",
"end_stop_name":"聯合醫院板橋院區",
"transfer_count":17,
"startlng":121.468559,
"startlat":25.023491,
"endlng":121.457773,
"endlat":25.023832
},
{
"start_stop_name":"師範大學公館校區",
"end_stop_name":"捷運公館站(2號出口)",
"transfer_count":20,
"startlng":121.537188,
"startlat":25.007528,
"endlng":121.534538,
"endlat":25.01476
},
{
"start_stop_name":"秀山國小",
"end_stop_name":"捷運永安市場站",
"transfer_count":20,
"startlng":121.521988,
"startlat":24.996151,
"endlng":121.511588,
"endlat":25.001013
},
{
"start_stop_name":"捷運丹鳳站(1號出口)",
"end_stop_name":"後港公園",
"transfer_count":23,
"startlng":121.422799,
"startlat":25.029032,
"endlng":121.428348,
"endlat":25.025358
},
{
"start_stop_name":"永福國小",
"end_stop_name":"永盛公園",
"transfer_count":10,
"startlng":121.480315,
"startlat":25.077714,
"endlng":121.484304,
"endlat":25.076133
},
{
"start_stop_name":"臺北市立大學",
"end_stop_name":"捷運臺大醫院(4號出口)",
"transfer_count":6,
"startlng":121.514218,
"startlat":25.035414,
"endlng":121.516428,
"endlat":25.042973
},
{
"start_stop_name":"四維公園",
"end_stop_name":"福營行政中心",
"transfer_count":6,
"startlng":121.422185,
"startlat":25.021308,
"endlng":121.42387,
"endlat":25.024125
},
{
"start_stop_name":"永盛公園",
"end_stop_name":"永福國小",
"transfer_count":8,
"startlng":121.484304,
"startlat":25.076133,
"endlng":121.480315,
"endlat":25.077714
},
{
"start_stop_name":"崑崙公園",
"end_stop_name":"板林溪北路口",
"transfer_count":12,
"startlng":121.429636,
"startlat":24.993406,
"endlng":121.42635,
"endlat":24.990555
},
{
"start_stop_name":"新北市政府(新府路)",
"end_stop_name":"中和環球購物中心",
"transfer_count":14,
"startlng":121.464224,
"startlat":25.012374,
"endlng":121.474223,
"endlat":25.006367
},
{
"start_stop_name":"板橋四維公園",
"end_stop_name":"板橋國民運動中心",
"transfer_count":14,
"startlng":121.462633,
"startlat":25.025464,
"endlng":121.458152,
"endlat":25.022235
},
{
"start_stop_name":"捷運三重站(3號出口)",
"end_stop_name":"集成成功路口",
"transfer_count":14,
"startlng":121.484739,
"startlat":25.055883,
"endlng":121.488208,
"endlat":25.051542
},
{
"start_stop_name":"黃城公園",
"end_stop_name":"捷運新莊站(1號出口)",
"transfer_count":15,
"startlng":121.448239,
"startlat":25.052382,
"endlng":121.452069,
"endlat":25.036152
},
{
"start_stop_name":"松山家商",
"end_stop_name":"松山車站",
"transfer_count":15,
"startlng":121.579135,
"startlat":25.036084,
"endlng":121.578095,
"endlat":25.048616
},
{
"start_stop_name":"捷運市政府站(3號出口)",
"end_stop_name":"永吉松信路口",
"transfer_count":16,
"startlng":121.5679044,
"startlat":25.04085789,
"endlng":121.57205,
"endlat":25.04543
},
{
"start_stop_name":"捷運永安市場站",
"end_stop_name":"秀朗國小",
"transfer_count":17,
"startlng":121.511588,
"startlat":25.001013,
"endlng":121.522843,
"endlat":24.999392
},
{
"start_stop_name":"捷運七張站(1號出口)",
"end_stop_name":"新店高中",
"transfer_count":17,
"startlng":121.542767,
"startlat":24.974996,
"endlng":121.534209,
"endlat":24.974181
},
{
"start_stop_name":"捷運象山站",
"end_stop_name":"松德公園",
"transfer_count":18,
"startlng":121.571274,
"startlat":25.032835,
"endlng":121.57343,
"endlat":25.036568
},
{
"start_stop_name":"捷運三民高中站(1號出口)",
"end_stop_name":"永安圖書館",
"transfer_count":18,
"startlng":121.472722,
"startlat":25.085815,
"endlng":121.462228,
"endlat":25.078599
},
{
"start_stop_name":"六合公園",
"end_stop_name":"捷運三和國中站(1號出口)",
"transfer_count":19,
"startlng":121.487588,
"startlat":25.069499,
"endlng":121.487795,
"endlat":25.075881
},
{
"start_stop_name":"金城忠義路口",
"end_stop_name":"捷運土城站(2號出口)",
"transfer_count":25,
"startlng":121.440808,
"startlat":24.969399,
"endlng":121.443563,
"endlat":24.972631
},
{
"start_stop_name":"中華桂林路口",
"end_stop_name":"臺北市立大學",
"transfer_count":3,
"startlng":121.506624,
"startlat":25.037706,
"endlng":121.514218,
"endlat":25.035414
},
{
"start_stop_name":"中正基河路口",
"end_stop_name":"捷運士林站(2號出口)",
"transfer_count":20,
"startlng":121.519867,
"startlat":25.093396,
"endlng":121.526556,
"endlat":25.092546
},
{
"start_stop_name":"丹鳳派出所",
"end_stop_name":"捷運丹鳳站(1號出口)",
"transfer_count":21,
"startlng":121.414662,
"startlat":25.027694,
"endlng":121.422799,
"endlat":25.029032
},
{
"start_stop_name":"台灣科技大學",
"end_stop_name":"台北花木批發市場",
"transfer_count":1,
"startlng":121.539723,
"startlat":25.0131,
"endlng":121.54074,
"endlat":25.004023
},
{
"start_stop_name":"明志國小",
"end_stop_name":"同興公園",
"transfer_count":1,
"startlng":121.426269,
"startlat":25.045729,
"endlng":121.432128,
"endlat":25.055188
},
{
"start_stop_name":"仁愛文化二路口",
"end_stop_name":"扶輪公園",
"transfer_count":2,
"startlng":121.374258,
"startlat":25.077118,
"endlng":121.36948,
"endlat":25.072864
},
{
"start_stop_name":"金城立德路口",
"end_stop_name":"金城立體停車場",
"transfer_count":3,
"startlng":121.465481,
"startlat":24.986691,
"endlng":121.458595,
"endlat":24.984102
},
{
"start_stop_name":"捷運大安站",
"end_stop_name":"捷運忠孝復興站(2號出口)",
"transfer_count":4,
"startlng":121.543057,
"startlat":25.033078,
"endlng":121.543497,
"endlat":25.040184
},
{
"start_stop_name":"同興公園",
"end_stop_name":"明志國小",
"transfer_count":5,
"startlng":121.432128,
"startlat":25.055188,
"endlng":121.426269,
"endlat":25.045729
},
{
"start_stop_name":"林口社區運動公園",
"end_stop_name":"仁愛文化二路口",
"transfer_count":6,
"startlng":121.377001,
"startlat":25.07415,
"endlng":121.374258,
"endlat":25.077118
},
{
"start_stop_name":"長壽親子公園",
"end_stop_name":"樹林大安活動中心",
"transfer_count":8,
"startlng":121.421371,
"startlat":24.991853,
"endlng":121.41477,
"endlat":24.986391
},
{
"start_stop_name":"秀朗國小",
"end_stop_name":"中和公園",
"transfer_count":8,
"startlng":121.522843,
"startlat":24.999392,
"endlng":121.51435,
"endlat":25.000726
},
{
"start_stop_name":"捷運大安站",
"end_stop_name":"臺大資訊大樓",
"transfer_count":8,
"startlng":121.543057,
"startlat":25.033078,
"endlng":121.54153,
"endlat":25.02101
},
{
"start_stop_name":"永吉松信路口",
"end_stop_name":"松山車站",
"transfer_count":10,
"startlng":121.57205,
"startlat":25.04543,
"endlng":121.578095,
"endlat":25.048616
},
{
"start_stop_name":"聯邦公園",
"end_stop_name":"三重商工",
"transfer_count":11,
"startlng":121.48371,
"startlat":25.064447,
"endlng":121.480705,
"endlat":25.068681
},
{
"start_stop_name":"三重國民運動中心",
"end_stop_name":"重新重安街口",
"transfer_count":13,
"startlng":121.488489,
"startlat":25.054391,
"endlng":121.489751,
"endlat":25.058443
},
{
"start_stop_name":"中和環球購物中心",
"end_stop_name":"新北市政府(新府路)",
"transfer_count":14,
"startlng":121.474223,
"startlat":25.006367,
"endlng":121.464224,
"endlat":25.012374
},
{
"start_stop_name":"建國長春路口",
"end_stop_name":"捷運松江南京站(7號出口)",
"transfer_count":16,
"startlng":121.536925,
"startlat":25.054761,
"endlng":121.533211,
"endlat":25.052181
},
{
"start_stop_name":"臺北市立圖書館(總館)",
"end_stop_name":"信義建國路口",
"transfer_count":17,
"startlng":121.538073,
"startlat":25.028798,
"endlng":121.53747,
"endlat":25.03293
},
{
"start_stop_name":"捷運新埔站(4號出口)",
"end_stop_name":"音樂公園",
"transfer_count":17,
"startlng":121.468559,
"startlat":25.023491,
"endlng":121.48046,
"endlat":25.028631
},
{
"start_stop_name":"萬大興寧街口",
"end_stop_name":"華江高中",
"transfer_count":18,
"startlng":121.500474,
"startlat":25.031974,
"endlng":121.495869,
"endlat":25.02751
},
{
"start_stop_name":"松山車站",
"end_stop_name":"永吉松信路口",
"transfer_count":19,
"startlng":121.578095,
"startlat":25.048616,
"endlng":121.57205,
"endlat":25.04543
},
{
"start_stop_name":"捷運江子翠站(3號出口)",
"end_stop_name":"永豐公園活動中心",
"transfer_count":19,
"startlng":121.472359,
"startlat":25.029729,
"endlng":121.476853,
"endlat":25.021127
},
{
"start_stop_name":"捷運板橋站(1號出口)",
"end_stop_name":"板橋第一運動場",
"transfer_count":20,
"startlng":121.4619,
"startlat":25.013174,
"endlng":121.468258,
"endlat":25.009147
},
{
"start_stop_name":"捷運南港展覽館站(5號出口)",
"end_stop_name":"白雲國小",
"transfer_count":21,
"startlng":121.61669,
"startlat":25.05469,
"endlng":121.618888,
"endlat":25.047578
},
{
"start_stop_name":"捷運丹鳳站(1號出口)",
"end_stop_name":"西盛公園",
"transfer_count":22,
"startlng":121.422799,
"startlat":25.029032,
"endlng":121.428048,
"endlat":25.017113
},
{
"start_stop_name":"捷運先嗇宮站(2號出口)",
"end_stop_name":"中興北街175巷口",
"transfer_count":23,
"startlng":121.470987,
"startlat":25.046068,
"endlng":121.47132874,
"endlat":25.05596924
},
{
"start_stop_name":"捷運行天宮站(3號出口)",
"end_stop_name":"中山行政中心",
"transfer_count":18,
"startlng":121.533302,
"startlat":25.059978,
"endlng":121.533487,
"endlat":25.064317
},
{
"start_stop_name":"捷運西門站(3號出口)",
"end_stop_name":"中華桂林路口",
"transfer_count":17,
"startlng":121.508693,
"startlat":25.041778,
"endlng":121.506624,
"endlat":25.037706
},
{
"start_stop_name":"清水高中",
"end_stop_name":"青山廣場",
"transfer_count":0,
"startlng":121.465444,
"startlat":24.982756,
"endlng":121.459751,
"endlat":24.977837
},
{
"start_stop_name":"永平高中",
"end_stop_name":"捷運永安市場站",
"transfer_count":3,
"startlng":121.509358,
"startlat":25.010163,
"endlng":121.511588,
"endlat":25.001013
},
{
"start_stop_name":"板橋國民運動中心",
"end_stop_name":"板橋四維公園",
"transfer_count":7,
"startlng":121.458152,
"startlat":25.022235,
"endlng":121.462633,
"endlat":25.025464
},
{
"start_stop_name":"永和國小",
"end_stop_name":"捷運永安市場站",
"transfer_count":8,
"startlng":121.517442,
"startlat":25.002272,
"endlng":121.511588,
"endlat":25.001013
},
{
"start_stop_name":"建國民權路口",
"end_stop_name":"小金門友誼公園",
"transfer_count":8,
"startlng":121.537462,
"startlat":24.983184,
"endlng":121.53814,
"endlat":24.977227
},
{
"start_stop_name":"臺大資訊大樓",
"end_stop_name":"捷運台電大樓站(2號出口)",
"transfer_count":13,
"startlng":121.54153,
"startlat":25.02101,
"endlng":121.528552,
"endlat":25.020547
},
{
"start_stop_name":"民生長江路口",
"end_stop_name":"捷運江子翠站(3號出口)",
"transfer_count":14,
"startlng":121.463596,
"startlat":25.030904,
"endlng":121.472359,
"endlat":25.029729
},
{
"start_stop_name":"永安兒童公園",
"end_stop_name":"重陽公園",
"transfer_count":15,
"startlng":121.482236,
"startlat":25.082273,
"endlng":121.483618,
"endlat":25.085688
},
{
"start_stop_name":"捷運迴龍站(3號出口)",
"end_stop_name":"三多國小",
"transfer_count":15,
"startlng":121.413053,
"startlat":25.02276,
"endlng":121.407135,
"endlat":25.016405
},
{
"start_stop_name":"捷運三重站(3號出口)",
"end_stop_name":"二重國小",
"transfer_count":16,
"startlng":121.484739,
"startlat":25.055883,
"endlng":121.477656,
"endlat":25.065976
},
{
"start_stop_name":"酒泉延平路口",
"end_stop_name":"捷運圓山站(2號出口)",
"transfer_count":16,
"startlng":121.510195,
"startlat":25.072228,
"endlng":121.519287,
"endlat":25.071824
},
{
"start_stop_name":"伊吉邦社區",
"end_stop_name":"捷運迴龍站(3號出口)",
"transfer_count":16,
"startlng":121.41339874,
"startlat":25.0301857,
"endlng":121.413053,
"endlat":25.02276
},
{
"start_stop_name":"捷運永安市場站",
"end_stop_name":"永和國小",
"transfer_count":17,
"startlng":121.511588,
"startlat":25.001013,
"endlng":121.517442,
"endlat":25.002272
},
{
"start_stop_name":"捷運大坪林站",
"end_stop_name":"裕隆公園",
"transfer_count":18,
"startlng":121.541721,
"startlat":24.983977,
"endlng":121.546319,
"endlat":24.979649
},
{
"start_stop_name":"捷運三和國中站(1號出口)",
"end_stop_name":"自強溪尾街口",
"transfer_count":18,
"startlng":121.487795,
"startlat":25.075881,
"endlng":121.489894,
"endlat":25.078153
},
{
"start_stop_name":"建國和平路口",
"end_stop_name":"捷運大安森林公園站",
"transfer_count":19,
"startlng":121.537383,
"startlat":25.02585,
"endlng":121.535161,
"endlat":25.033156
},
{
"start_stop_name":"板橋第一運動場",
"end_stop_name":"捷運板橋站(1號出口)",
"transfer_count":22,
"startlng":121.468258,
"startlat":25.009147,
"endlng":121.4619,
"endlat":25.013174
},
{
"start_stop_name":"捷運行天宮站(3號出口)",
"end_stop_name":"捷運中山國中站",
"transfer_count":19,
"startlng":121.533302,
"startlat":25.059978,
"endlng":121.544028,
"endlat":25.060632
},
{
"start_stop_name":"八德市場",
"end_stop_name":"建國長春路口",
"transfer_count":0,
"startlng":121.536609,
"startlat":25.044781,
"endlng":121.536925,
"endlat":25.054761
},
{
"start_stop_name":"南昌公園",
"end_stop_name":"國家圖書館",
"transfer_count":1,
"startlng":121.520258,
"startlat":25.026827,
"endlng":121.517029,
"endlat":25.037773
},
{
"start_stop_name":"明志國中",
"end_stop_name":"三重商工",
"transfer_count":2,
"startlng":121.488982,
"startlat":25.063396,
"endlng":121.480705,
"endlat":25.068681
},
{
"start_stop_name":"龍鳳公園",
"end_stop_name":"西盛公園",
"transfer_count":3,
"startlng":121.41649628,
"startlat":25.02144623,
"endlng":121.428048,
"endlat":25.017113
},
{
"start_stop_name":"安成安德街口",
"end_stop_name":"柴埕市民活動中心",
"transfer_count":3,
"startlng":121.509988,
"startlat":24.961147,
"endlng":121.516479,
"endlat":24.966775
},
{
"start_stop_name":"潤泰社區",
"end_stop_name":"民生公園",
"transfer_count":4,
"startlng":121.479375,
"startlat":25.017953,
"endlng":121.475894,
"endlat":25.013087
},
{
"start_stop_name":"捷運臺大醫院(4號出口)",
"end_stop_name":"臺北市立大學",
"transfer_count":4,
"startlng":121.516428,
"startlat":25.042973,
"endlng":121.514218,
"endlat":25.035414
},
{
"start_stop_name":"捷運永安市場站",
"end_stop_name":"福和國中",
"transfer_count":6,
"startlng":121.511588,
"startlat":25.001013,
"endlng":121.52093,
"endlat":25.005952
},
{
"start_stop_name":"建國民權路口",
"end_stop_name":"大鵬華城",
"transfer_count":7,
"startlng":121.537462,
"startlat":24.983184,
"endlng":121.53398,
"endlat":24.99116
},
{
"start_stop_name":"捷運大安站",
"end_stop_name":"捷運科技大樓站",
"transfer_count":8,
"startlng":121.543057,
"startlat":25.033078,
"endlng":121.543293,
"endlat":25.025896
},
{
"start_stop_name":"二重國中",
"end_stop_name":"興華公園",
"transfer_count":8,
"startlng":121.480465,
"startlat":25.065957,
"endlng":121.483101,
"endlat":25.060125
},
{
"start_stop_name":"捷運公館站(2號出口)",
"end_stop_name":"師範大學公館校區",
"transfer_count":12,
"startlng":121.534538,
"startlat":25.01476,
"endlng":121.537188,
"endlat":25.007528
},
{
"start_stop_name":"蘆洲國民運動中心",
"end_stop_name":"永平公園",
"transfer_count":12,
"startlng":121.461613,
"startlat":25.091945,
"endlng":121.459424,
"endlat":25.089987
},
{
"start_stop_name":"捷運三重國小站",
"end_stop_name":"開元市民活動中心",
"transfer_count":13,
"startlng":121.497126,
"startlat":25.070418,
"endlng":121.503557,
"endlat":25.066074
},
{
"start_stop_name":"樹林火車站(後站)",
"end_stop_name":"樹林大安活動中心",
"transfer_count":15,
"startlng":121.424652,
"startlat":24.992553,
"endlng":121.41477,
"endlat":24.986391
},
{
"start_stop_name":"中和地政事務所",
"end_stop_name":"景安板南路口",
"transfer_count":15,
"startlng":121.502397,
"startlat":24.990393,
"endlng":121.504443,
"endlat":24.992249
},
{
"start_stop_name":"吳興公車總站",
"end_stop_name":"泰和公園",
"transfer_count":15,
"startlng":121.569836,
"startlat":25.023877,
"endlng":121.57105,
"endlat":25.019296
},
{
"start_stop_name":"捷運新埔站(4號出口)",
"end_stop_name":"永安公園",
"transfer_count":15,
"startlng":121.468559,
"startlat":25.023491,
"endlng":121.477572,
"endlat":25.024478
},
{
"start_stop_name":"捷運三重國小站",
"end_stop_name":"三張公園",
"transfer_count":16,
"startlng":121.497126,
"startlat":25.070418,
"endlng":121.490935,
"endlat":25.070507
},
{
"start_stop_name":"捷運板橋站(1號出口)",
"end_stop_name":"國光公園",
"transfer_count":17,
"startlng":121.4619,
"startlat":25.013174,
"endlng":121.453852,
"endlat":25.019828
},
{
"start_stop_name":"六張公園",
"end_stop_name":"捷運三重國小站",
"transfer_count":17,
"startlng":121.494048,
"startlat":25.069661,
"endlng":121.497126,
"endlat":25.070418
},
{
"start_stop_name":"捷運菜寮站(3號出口)",
"end_stop_name":"明志國中",
"transfer_count":18,
"startlng":121.492198,
"startlat":25.060471,
"endlng":121.488982,
"endlat":25.063396
},
{
"start_stop_name":"捷運南港展覽館站(5號出口)",
"end_stop_name":"中研公園",
"transfer_count":19,
"startlng":121.61669,
"startlat":25.05469,
"endlng":121.613706,
"endlat":25.047425
},
{
"start_stop_name":"捷運劍潭站(2號出口)",
"end_stop_name":"華齡公園",
"transfer_count":19,
"startlng":121.524721,
"startlat":25.082825,
"endlng":121.52069092,
"endlat":25.08302307
},
{
"start_stop_name":"蘭雅國小",
"end_stop_name":"捷運芝山站(2號出口)",
"transfer_count":19,
"startlng":121.523107,
"startlat":25.107782,
"endlng":121.522629,
"endlat":25.10336
},
{
"start_stop_name":"捷運徐匯中學站(1號出口)",
"end_stop_name":"永福國小",
"transfer_count":19,
"startlng":121.479852,
"startlat":25.080468,
"endlng":121.480315,
"endlat":25.077714
},
{
"start_stop_name":"南樹林火車站",
"end_stop_name":"大同國小",
"transfer_count":19,
"startlng":121.408605,
"startlat":24.980236,
"endlng":121.416844,
"endlat":24.981146
},
{
"start_stop_name":"中山天母路口",
"end_stop_name":"捷運芝山站(2號出口)",
"transfer_count":20,
"startlng":121.529738,
"startlat":25.118843,
"endlng":121.522629,
"endlat":25.10336
},
{
"start_stop_name":"捷運士林站(2號出口)",
"end_stop_name":"中正基河路口",
"transfer_count":20,
"startlng":121.526556,
"startlat":25.092546,
"endlng":121.519867,
"endlat":25.093396
},
{
"start_stop_name":"捷運芝山站(2號出口)",
"end_stop_name":"芝山國小",
"transfer_count":20,
"startlng":121.522629,
"startlat":25.10336,
"endlng":121.53595734,
"endlat":25.11043739
},
{
"start_stop_name":"三重商工",
"end_stop_name":"興華公園",
"transfer_count":12,
"startlng":121.480705,
"startlat":25.068681,
"endlng":121.483101,
"endlat":25.060125
},
{
"start_stop_name":"捷運市政府站(3號出口)",
"end_stop_name":"興雅國中",
"transfer_count":18,
"startlng":121.5679044,
"startlat":25.04085789,
"endlng":121.5686639,
"endlat":25.03656389
},
{
"start_stop_name":"中興北街175巷口",
"end_stop_name":"捷運先嗇宮站(2號出口)",
"transfer_count":23,
"startlng":121.47132874,
"startlat":25.05596924,
"endlng":121.470987,
"endlat":25.046068
},
{
"start_stop_name":"仁愛文化二路口",
"end_stop_name":"麗林公有市場",
"transfer_count":0,
"startlng":121.374258,
"startlat":25.077118,
"endlng":121.367761,
"endlat":25.069123
},
{
"start_stop_name":"臺灣師範大學(圖書館)",
"end_stop_name":"羅斯福新生南路口",
"transfer_count":2,
"startlng":121.52889,
"startlat":25.02665,
"endlng":121.5331757,
"endlat":25.01603085
},
{
"start_stop_name":"樹林大安活動中心",
"end_stop_name":"長壽親子公園",
"transfer_count":2,
"startlng":121.41477,
"startlat":24.986391,
"endlng":121.421371,
"endlat":24.991853
},
{
"start_stop_name":"福營行政中心",
"end_stop_name":"西盛公園",
"transfer_count":4,
"startlng":121.42387,
"startlat":25.024125,
"endlng":121.428048,
"endlat":25.017113
},
{
"start_stop_name":"捷運公館站(2號出口)",
"end_stop_name":"捷運台電大樓站(2號出口)",
"transfer_count":4,
"startlng":121.534538,
"startlat":25.01476,
"endlng":121.528552,
"endlat":25.020547
},
{
"start_stop_name":"捷運台電大樓站(2號出口)",
"end_stop_name":"台灣科技大學",
"transfer_count":5,
"startlng":121.528552,
"startlat":25.020547,
"endlng":121.539723,
"endlat":25.0131
},
{
"start_stop_name":"三重國民運動中心",
"end_stop_name":"集成成功路口",
"transfer_count":6,
"startlng":121.488489,
"startlat":25.054391,
"endlng":121.488208,
"endlat":25.051542
},
{
"start_stop_name":"捷運科技大樓站",
"end_stop_name":"臺灣師範大學(圖書館)",
"transfer_count":7,
"startlng":121.543293,
"startlat":25.025896,
"endlng":121.52889,
"endlat":25.02665
},
{
"start_stop_name":"板橋車站",
"end_stop_name":"板橋國民運動中心",
"transfer_count":10,
"startlng":121.463735,
"startlat":25.015519,
"endlng":121.458152,
"endlat":25.022235
},
{
"start_stop_name":"正德國中",
"end_stop_name":"捷運淡水站",
"transfer_count":10,
"startlng":121.447874,
"startlat":25.178512,
"endlng":121.444183,
"endlat":25.168826
},
{
"start_stop_name":"羅斯福新生南路口",
"end_stop_name":"辛亥新生路口",
"transfer_count":11,
"startlng":121.5331757,
"startlat":25.01603085,
"endlng":121.53456,
"endlat":25.022413
},
{
"start_stop_name":"捷運新埔站(4號出口)",
"end_stop_name":"板橋國民運動中心",
"transfer_count":12,
"startlng":121.468559,
"startlat":25.023491,
"endlng":121.458152,
"endlat":25.022235
},
{
"start_stop_name":"二重國中",
"end_stop_name":"捷運三重站(3號出口)",
"transfer_count":13,
"startlng":121.480465,
"startlat":25.065957,
"endlng":121.484739,
"endlat":25.055883
},
{
"start_stop_name":"捷運迴龍站(3號出口)",
"end_stop_name":"丹鳳派出所",
"transfer_count":13,
"startlng":121.413053,
"startlat":25.02276,
"endlng":121.414662,
"endlat":25.027694
},
{
"start_stop_name":"莊敬公園",
"end_stop_name":"民生公園",
"transfer_count":13,
"startlng":121.470821,
"startlat":25.020983,
"endlng":121.475894,
"endlat":25.013087
},
{
"start_stop_name":"捷運頂溪站(1號出口)",
"end_stop_name":"保安永平路口",
"transfer_count":14,
"startlng":121.515271,
"startlat":25.012176,
"endlng":121.506471,
"endlat":25.012691
},
{
"start_stop_name":"板橋地政事務所",
"end_stop_name":"捷運板橋站(1號出口)",
"transfer_count":15,
"startlng":121.463387,
"startlat":25.007983,
"endlng":121.4619,
"endlat":25.013174
},
{
"start_stop_name":"捷運新埔站(4號出口)",
"end_stop_name":"永豐公園活動中心",
"transfer_count":16,
"startlng":121.468559,
"startlat":25.023491,
"endlng":121.476853,
"endlat":25.021127
},
{
"start_stop_name":"捷運迴龍站(3號出口)",
"end_stop_name":"光華公園",
"transfer_count":17,
"startlng":121.413053,
"startlat":25.02276,
"endlng":121.413157,
"endlat":25.005412
},
{
"start_stop_name":"捷運台電大樓站(2號出口)",
"end_stop_name":"辛亥新生路口",
"transfer_count":17,
"startlng":121.528552,
"startlat":25.020547,
"endlng":121.53456,
"endlat":25.022413
},
{
"start_stop_name":"鶯歌火車站(仁愛路)",
"end_stop_name":"尖山公園",
"transfer_count":18,
"startlng":121.354376,
"startlat":24.955591,
"endlng":121.345767,
"endlat":24.94822
},
{
"start_stop_name":"臺灣師範大學(圖書館)",
"end_stop_name":"臺大資訊大樓",
"transfer_count":1,
"startlng":121.52889,
"startlat":25.02665,
"endlng":121.54153,
"endlat":25.02101
},
{
"start_stop_name":"新北市政府(新府路)",
"end_stop_name":"捷運府中站(3號出口)",
"transfer_count":2,
"startlng":121.464224,
"startlat":25.012374,
"endlng":121.458776,
"endlat":25.008999
},
{
"start_stop_name":"臺大資訊大樓",
"end_stop_name":"臺灣師範大學(圖書館)",
"transfer_count":3,
"startlng":121.54153,
"startlat":25.02101,
"endlng":121.52889,
"endlat":25.02665
},
{
"start_stop_name":"義仁市民活動中心",
"end_stop_name":"明志國小",
"transfer_count":3,
"startlng":121.427667,
"startlat":25.050479,
"endlng":121.426269,
"endlat":25.045729
},
{
"start_stop_name":"臺北市立大學",
"end_stop_name":"老松國小",
"transfer_count":3,
"startlng":121.514218,
"startlat":25.035414,
"endlng":121.501708,
"endlat":25.037783
},
{
"start_stop_name":"麗林公有市場",
"end_stop_name":"新麗園社區",
"transfer_count":3,
"startlng":121.367761,
"startlat":25.069123,
"endlng":121.376882,
"endlat":25.070428
},
{
"start_stop_name":"民生公園",
"end_stop_name":"潤泰社區",
"transfer_count":4,
"startlng":121.475894,
"startlat":25.013087,
"endlng":121.479375,
"endlat":25.017953
},
{
"start_stop_name":"捷運市政府站(3號出口)",
"end_stop_name":"台北市災害應變中心",
"transfer_count":5,
"startlng":121.5679044,
"startlat":25.04085789,
"endlng":121.5661167,
"endlat":25.02866111
},
{
"start_stop_name":"捷運新莊站(1號出口)",
"end_stop_name":"中華中原路口",
"transfer_count":8,
"startlng":121.452069,
"startlat":25.036152,
"endlng":121.451752,
"endlat":25.054232
},
{
"start_stop_name":"芝山國小",
"end_stop_name":"捷運芝山站(2號出口)",
"transfer_count":15,
"startlng":121.53595734,
"startlat":25.11043739,
"endlng":121.522629,
"endlat":25.10336
},
{
"start_stop_name":"捷運江子翠站(3號出口)",
"end_stop_name":"捷運新埔站(2號出口)",
"transfer_count":9,
"startlng":121.472359,
"startlat":25.029729,
"endlng":121.467598,
"endlat":25.022095
},
{
"start_stop_name":"臺大資訊大樓",
"end_stop_name":"捷運大安站",
"transfer_count":11,
"startlng":121.54153,
"startlat":25.02101,
"endlng":121.543057,
"endlat":25.033078
},
{
"start_stop_name":"捷運新埔站(4號出口)",
"end_stop_name":"民生長江路口",
"transfer_count":12,
"startlng":121.468559,
"startlat":25.023491,
"endlng":121.463596,
"endlat":25.030904
},
{
"start_stop_name":"聯合醫院板橋院區",
"end_stop_name":"捷運板橋站(3號出口)",
"transfer_count":12,
"startlng":121.457773,
"startlat":25.023832,
"endlng":121.462051,
"endlat":25.014797
},
{
"start_stop_name":"福營行政中心",
"end_stop_name":"四維公園",
"transfer_count":12,
"startlng":121.42387,
"startlat":25.024125,
"endlng":121.422185,
"endlat":25.021308
},
{
"start_stop_name":"國光公園",
"end_stop_name":"捷運板橋站(1號出口)",
"transfer_count":15,
"startlng":121.453852,
"startlat":25.019828,
"endlng":121.4619,
"endlat":25.013174
},
{
"start_stop_name":"捷運科技大樓站",
"end_stop_name":"羅斯福新生南路口",
"transfer_count":15,
"startlng":121.543293,
"startlat":25.025896,
"endlng":121.5331757,
"endlat":25.01603085
},
{
"start_stop_name":"華江高中",
"end_stop_name":"捷運龍山寺站(1號出口)",
"transfer_count":17,
"startlng":121.495869,
"startlat":25.02751,
"endlng":121.50026,
"endlat":25.035479
},
{
"start_stop_name":"中山行政中心",
"end_stop_name":"捷運行天宮站(3號出口)",
"transfer_count":17,
"startlng":121.533487,
"startlat":25.064317,
"endlng":121.533302,
"endlat":25.059978
},
{
"start_stop_name":"板橋福德公園",
"end_stop_name":"捷運板橋站(1號出口)",
"transfer_count":18,
"startlng":121.467415,
"startlat":25.011498,
"endlng":121.4619,
"endlat":25.013174
},
{
"start_stop_name":"捷運三重國小站",
"end_stop_name":"六張公園",
"transfer_count":19,
"startlng":121.497126,
"startlat":25.070418,
"endlng":121.494048,
"endlat":25.069661
},
{
"start_stop_name":"捷運先嗇宮站(2號出口)",
"end_stop_name":"先嗇宮",
"transfer_count":19,
"startlng":121.470987,
"startlat":25.046068,
"endlng":121.476007,
"endlat":25.05119
},
{
"start_stop_name":"捷運徐匯中學站(1號出口)",
"end_stop_name":"三民中山一路口",
"transfer_count":20,
"startlng":121.479852,
"startlat":25.080468,
"endlng":121.476004,
"endlat":25.082229
},
{
"start_stop_name":"捷運府中站(3號出口)",
"end_stop_name":"捷運亞東醫院站(2號出口)",
"transfer_count":8,
"startlng":121.458776,
"startlat":25.008999,
"endlng":121.452315,
"endlat":24.99783
},
{
"start_stop_name":"崑崙活力廣場",
"end_stop_name":"板林溪北路口",
"transfer_count":9,
"startlng":121.43288,
"startlat":24.993901,
"endlng":121.42635,
"endlat":24.990555
},
{
"start_stop_name":"三民中山一路口",
"end_stop_name":"捷運徐匯中學站(1號出口)",
"transfer_count":19,
"startlng":121.476004,
"startlat":25.082229,
"endlng":121.479852,
"endlat":25.080468
},
{
"start_stop_name":"捷運西門站(3號出口)",
"end_stop_name":"臺北市立大學",
"transfer_count":0,
"startlng":121.508693,
"startlat":25.041778,
"endlng":121.514218,
"endlat":25.035414
},
{
"start_stop_name":"臺大資訊大樓",
"end_stop_name":"辛亥新生路口",
"transfer_count":3,
"startlng":121.54153,
"startlat":25.02101,
"endlng":121.53456,
"endlat":25.022413
},
{
"start_stop_name":"中山佳林路口",
"end_stop_name":"林口自強公園",
"transfer_count":3,
"startlng":121.385587,
"startlat":25.079592,
"endlng":121.397208,
"endlat":25.078126
},
{
"start_stop_name":"板橋戶政事務所",
"end_stop_name":"國光公園",
"transfer_count":4,
"startlng":121.456308,
"startlat":25.012839,
"endlng":121.453852,
"endlat":25.019828
},
{
"start_stop_name":"永和國小",
"end_stop_name":"捷運頂溪站(1號出口)",
"transfer_count":5,
"startlng":121.517442,
"startlat":25.002272,
"endlng":121.515271,
"endlat":25.012176
},
{
"start_stop_name":"捷運台電大樓站(2號出口)",
"end_stop_name":"臺灣師範大學(圖書館)",
"transfer_count":6,
"startlng":121.528552,
"startlat":25.020547,
"endlng":121.52889,
"endlat":25.02665
},
{
"start_stop_name":"中正富國路口",
"end_stop_name":"龍鳳公園",
"transfer_count":7,
"startlng":121.417694,
"startlat":25.02594,
"endlng":121.41649628,
"endlat":25.02144623
},
{
"start_stop_name":"中華中原路口",
"end_stop_name":"捷運新莊站(1號出口)",
"transfer_count":9,
"startlng":121.451752,
"startlat":25.054232,
"endlng":121.452069,
"endlat":25.036152
},
{
"start_stop_name":"捷運大安站",
"end_stop_name":"臺北市立圖書館(總館)",
"transfer_count":9,
"startlng":121.543057,
"startlat":25.033078,
"endlng":121.538073,
"endlat":25.028798
},
{
"start_stop_name":"捷運板橋站(3號出口)",
"end_stop_name":"板橋福德公園",
"transfer_count":10,
"startlng":121.462051,
"startlat":25.014797,
"endlng":121.467415,
"endlat":25.011498
},
{
"start_stop_name":"永昌里兒一公園",
"end_stop_name":"鶯歌火車站(仁愛路)",
"transfer_count":12,
"startlng":121.339645,
"startlat":24.956661,
"endlng":121.354376,
"endlat":24.955591
},
{
"start_stop_name":"捷運徐匯中學站(1號出口)",
"end_stop_name":"三重永豐公園",
"transfer_count":13,
"startlng":121.479852,
"startlat":25.080468,
"endlng":121.478162,
"endlat":25.074629
},
{
"start_stop_name":"新北市政府(新府路)",
"end_stop_name":"民德立體停車場",
"transfer_count":14,
"startlng":121.464224,
"startlat":25.012374,
"endlng":121.468345,
"endlat":24.999098
},
{
"start_stop_name":"三多國小",
"end_stop_name":"捷運迴龍站(3號出口)",
"transfer_count":14,
"startlng":121.407135,
"startlat":25.016405,
"endlng":121.413053,
"endlat":25.02276
},
{
"start_stop_name":"頂溪國小",
"end_stop_name":"捷運頂溪站(1號出口)",
"transfer_count":14,
"startlng":121.511261,
"startlat":25.015811,
"endlng":121.515271,
"endlat":25.012176
},
{
"start_stop_name":"捷運國父紀念館站(2號出口)",
"end_stop_name":"光復南路22巷口",
"transfer_count":14,
"startlng":121.55742,
"startlat":25.041254,
"endlng":121.557674,
"endlat":25.046914
},
{
"start_stop_name":"興雅國中",
"end_stop_name":"捷運市政府站(3號出口)",
"transfer_count":15,
"startlng":121.5686639,
"startlat":25.03656389,
"endlng":121.5679044,
"endlat":25.04085789
},
{
"start_stop_name":"三重國民運動中心",
"end_stop_name":"捷運三重站(3號出口)",
"transfer_count":15,
"startlng":121.488489,
"startlat":25.054391,
"endlng":121.484739,
"endlat":25.055883
},
{
"start_stop_name":"捷運板橋站(1號出口)",
"end_stop_name":"板橋國中",
"transfer_count":15,
"startlng":121.4619,
"startlat":25.013174,
"endlng":121.45431,
"endlat":25.024903
},
{
"start_stop_name":"捷運蘆洲站",
"end_stop_name":"蘆洲國民運動中心",
"transfer_count":16,
"startlng":121.464031,
"startlat":25.091637,
"endlng":121.461613,
"endlat":25.091945
},
{
"start_stop_name":"士林運動中心",
"end_stop_name":"捷運劍潭站(2號出口)",
"transfer_count":16,
"startlng":121.521814,
"startlat":25.089175,
"endlng":121.524721,
"endlat":25.082825
},
{
"start_stop_name":"捷運龍山寺站(1號出口)",
"end_stop_name":"華江高中",
"transfer_count":17,
"startlng":121.50026,
"startlat":25.035479,
"endlng":121.495869,
"endlat":25.02751
},
{
"start_stop_name":"捷運芝山站(2號出口)",
"end_stop_name":"中山天母路口",
"transfer_count":17,
"startlng":121.522629,
"startlat":25.10336,
"endlng":121.529738,
"endlat":25.118843
},
{
"start_stop_name":"捷運三重國小站",
"end_stop_name":"厚德公園",
"transfer_count":17,
"startlng":121.497126,
"startlat":25.070418,
"endlng":121.4912,
"endlat":25.071988
},
{
"start_stop_name":"崇光女中",
"end_stop_name":"捷運七張站(1號出口)",
"transfer_count":18,
"startlng":121.539554,
"startlat":24.972127,
"endlng":121.542767,
"endlat":24.974996
},
{
"start_stop_name":"正德國中",
"end_stop_name":"中山北新春街口",
"transfer_count":4,
"startlng":121.447874,
"startlat":25.178512,
"endlng":121.444742,
"endlat":25.180345
},
{
"start_stop_name":"捷運松江南京站(7號出口)",
"end_stop_name":"捷運行天宮站(3號出口)",
"transfer_count":6,
"startlng":121.533211,
"startlat":25.052181,
"endlng":121.533302,
"endlat":25.059978
},
{
"start_stop_name":"榮星花園",
"end_stop_name":"捷運行天宮站(3號出口)",
"transfer_count":14,
"startlng":121.54037,
"startlat":25.06424,
"endlng":121.533302,
"endlat":25.059978
},
{
"start_stop_name":"秀朗國小",
"end_stop_name":"捷運永安市場站",
"transfer_count":17,
"startlng":121.522843,
"startlat":24.999392,
"endlng":121.511588,
"endlat":25.001013
},
{
"start_stop_name":"臺大資訊大樓",
"end_stop_name":"台灣科技大學",
"transfer_count":3,
"startlng":121.54153,
"startlat":25.02101,
"endlng":121.539723,
"endlat":25.0131
},
{
"start_stop_name":"捷運府中站(3號出口)",
"end_stop_name":"新北市政府(新府路)",
"transfer_count":5,
"startlng":121.458776,
"startlat":25.008999,
"endlng":121.464224,
"endlat":25.012374
},
{
"start_stop_name":"板橋和平公園",
"end_stop_name":"新北市政府(新府路)",
"transfer_count":5,
"startlng":121.464326,
"startlat":24.997679,
"endlng":121.464224,
"endlat":25.012374
},
{
"start_stop_name":"捷運景美站",
"end_stop_name":"大鵬華城",
"transfer_count":5,
"startlng":121.541059,
"startlat":24.993254,
"endlng":121.53398,
"endlat":24.99116
},
{
"start_stop_name":"捷運大坪林站",
"end_stop_name":"大鵬華城",
"transfer_count":9,
"startlng":121.541721,
"startlat":24.983977,
"endlng":121.53398,
"endlat":24.99116
},
{
"start_stop_name":"捷運迴龍站(3號出口)",
"end_stop_name":"西盛公園",
"transfer_count":9,
"startlng":121.413053,
"startlat":25.02276,
"endlng":121.428048,
"endlat":25.017113
},
{
"start_stop_name":"五福里(五華街)",
"end_stop_name":"新北高中",
"transfer_count":9,
"startlng":121.493902,
"startlat":25.081725,
"endlng":121.489525,
"endlat":25.087225
},
{
"start_stop_name":"捷運大安站",
"end_stop_name":"成功國宅",
"transfer_count":10,
"startlng":121.543057,
"startlat":25.033078,
"endlng":121.546726,
"endlat":25.026808
},
{
"start_stop_name":"捷運臺大醫院(4號出口)",
"end_stop_name":"仁愛林森路口",
"transfer_count":10,
"startlng":121.516428,
"startlat":25.042973,
"endlng":121.522334,
"endlat":25.038954
},
{
"start_stop_name":"捷運三和國中站(1號出口)",
"end_stop_name":"三重商工",
"transfer_count":10,
"startlng":121.487795,
"startlat":25.075881,
"endlng":121.480705,
"endlat":25.068681
},
{
"start_stop_name":"樹林火車站(後站)",
"end_stop_name":"樹林區衛生所",
"transfer_count":11,
"startlng":121.424652,
"startlat":24.992553,
"endlng":121.415032,
"endlat":24.983768
},
{
"start_stop_name":"豐年國小",
"end_stop_name":"捷運新莊站 ( 2號出口 )",
"transfer_count":11,
"startlng":121.44323,
"startlat":25.031278,
"endlng":121.452792,
"endlat":25.036075
},
{
"start_stop_name":"板橋第一運動場",
"end_stop_name":"新北市政府(新站路)",
"transfer_count":13,
"startlng":121.468258,
"startlat":25.009147,
"endlng":121.466455,
"endlat":25.012614
},
{
"start_stop_name":"捷運江子翠站(3號出口)",
"end_stop_name":"民生長江路口",
"transfer_count":13,
"startlng":121.472359,
"startlat":25.029729,
"endlng":121.463596,
"endlat":25.030904
},
{
"start_stop_name":"捷運石牌站(2號出口)",
"end_stop_name":"國立臺北護理健康大學",
"transfer_count":14,
"startlng":121.515677,
"startlat":25.114513,
"endlng":121.517512,
"endlat":25.118049
},
{
"start_stop_name":"六合公園",
"end_stop_name":"捷運三重國小站",
"transfer_count":14,
"startlng":121.487588,
"startlat":25.069499,
"endlng":121.497126,
"endlat":25.070418
},
{
"start_stop_name":"中正國小",
"end_stop_name":"捷運七張站(1號出口)",
"transfer_count":14,
"startlng":121.536296,
"startlat":24.971496,
"endlng":121.542767,
"endlat":24.974996
},
{
"start_stop_name":"捷運蘆洲站",
"end_stop_name":"中原公園",
"transfer_count":15,
"startlng":121.464031,
"startlat":25.091637,
"endlng":121.463894,
"endlat":25.083316
},
{
"start_stop_name":"捷運士林站(2號出口)",
"end_stop_name":"臺北市立天文館",
"transfer_count":17,
"startlng":121.526556,
"startlat":25.092546,
"endlng":121.518046,
"endlat":25.095714
},
{
"start_stop_name":"捷運丹鳳站(1號出口)",
"end_stop_name":"伊吉邦社區",
"transfer_count":18,
"startlng":121.422799,
"startlat":25.029032,
"endlng":121.41339874,
"endlat":25.0301857
},
{
"start_stop_name":"捷運菜寮站(3號出口)",
"end_stop_name":"三重商工",
"transfer_count":20,
"startlng":121.492198,
"startlat":25.060471,
"endlng":121.480705,
"endlat":25.068681
},
{
"start_stop_name":"臺灣師範大學(圖書館)",
"end_stop_name":"捷運古亭站(2號出口)",
"transfer_count":13,
"startlng":121.52889,
"startlat":25.02665,
"endlng":121.523537,
"endlat":25.0253
},
{
"start_stop_name":"捷運頂溪站(1號出口)",
"end_stop_name":"永和國小",
"transfer_count":13,
"startlng":121.515271,
"startlat":25.012176,
"endlng":121.517442,
"endlat":25.002272
},
{
"start_stop_name":"華江高中",
"end_stop_name":"萬大興寧街口",
"transfer_count":13,
"startlng":121.495869,
"startlat":25.02751,
"endlng":121.500474,
"endlat":25.031974
},
{
"start_stop_name":"信義廣場(台北101)",
"end_stop_name":"捷運市政府站(3號出口)",
"transfer_count":9,
"startlng":121.5656194,
"startlat":25.03303889,
"endlng":121.5679044,
"endlat":25.04085789
},
{
"start_stop_name":"重陽國小",
"end_stop_name":"明志國中",
"transfer_count":0,
"startlng":121.484337,
"startlat":25.066245,
"endlng":121.488982,
"endlat":25.063396
},
{
"start_stop_name":"台灣科技大學",
"end_stop_name":"師範大學公館校區",
"transfer_count":1,
"startlng":121.539723,
"startlat":25.0131,
"endlng":121.537188,
"endlat":25.007528
},
{
"start_stop_name":"仁愛文化二路口",
"end_stop_name":"新麗園社區",
"transfer_count":2,
"startlng":121.374258,
"startlat":25.077118,
"endlng":121.376882,
"endlat":25.070428
},
{
"start_stop_name":"中山北新春街口",
"end_stop_name":"新市國小",
"transfer_count":2,
"startlng":121.444742,
"startlat":25.180345,
"endlng":121.444332,
"endlat":25.185313
},
{
"start_stop_name":"柳堤公園",
"end_stop_name":"永康公園",
"transfer_count":4,
"startlng":121.462192,
"startlat":25.087989,
"endlng":121.458733,
"endlat":25.084764
},
{
"start_stop_name":"台灣科技大學",
"end_stop_name":"臺大資訊大樓",
"transfer_count":5,
"startlng":121.539723,
"startlat":25.0131,
"endlng":121.54153,
"endlat":25.02101
},
{
"start_stop_name":"捷運小巨蛋站(5號出口)",
"end_stop_name":"捷運南京三民站(1號出口)",
"transfer_count":5,
"startlng":121.553057,
"startlat":25.051702,
"endlng":121.563785,
"endlat":25.051518
},
{
"start_stop_name":"中興寶橋路口",
"end_stop_name":"惠國市場",
"transfer_count":5,
"startlng":121.54687,
"startlat":24.97618,
"endlng":121.543384,
"endlat":24.970415
},
{
"start_stop_name":"板橋國民運動中心",
"end_stop_name":"板橋車站",
"transfer_count":6,
"startlng":121.458152,
"startlat":25.022235,
"endlng":121.463735,
"endlat":25.015519
},
{
"start_stop_name":"鶯歌火車站(仁愛路)",
"end_stop_name":"鶯歌國中",
"transfer_count":6,
"startlng":121.354376,
"startlat":24.955591,
"endlng":121.342963,
"endlat":24.951734
},
{
"start_stop_name":"板林溪北路口",
"end_stop_name":"大同國小",
"transfer_count":6,
"startlng":121.42635,
"startlat":24.990555,
"endlng":121.416844,
"endlat":24.981146
},
{
"start_stop_name":"松山車站",
"end_stop_name":"福德公園",
"transfer_count":7,
"startlng":121.578095,
"startlat":25.048616,
"endlng":121.58367,
"endlat":25.03809
},
{
"start_stop_name":"捷運新埔站(2號出口)",
"end_stop_name":"民生長江路口",
"transfer_count":7,
"startlng":121.467598,
"startlat":25.022095,
"endlng":121.463596,
"endlat":25.030904
},
{
"start_stop_name":"中華里(中華路二段)",
"end_stop_name":"黃城公園",
"transfer_count":8,
"startlng":121.453766,
"startlat":25.045951,
"endlng":121.448239,
"endlat":25.052382
},
{
"start_stop_name":"樹林區衛生所",
"end_stop_name":"樹林火車站(後站)",
"transfer_count":8,
"startlng":121.415032,
"startlat":24.983768,
"endlng":121.424652,
"endlat":24.992553
},
{
"start_stop_name":"臺北轉運站",
"end_stop_name":"市民林森路口",
"transfer_count":8,
"startlng":121.520526,
"startlat":25.048222,
"endlng":121.524388,
"endlat":25.047958
},
{
"start_stop_name":"捷運迴龍站(3號出口)",
"end_stop_name":"伊吉邦社區",
"transfer_count":8,
"startlng":121.413053,
"startlat":25.02276,
"endlng":121.41339874,
"endlat":25.0301857
},
{
"start_stop_name":"永安公園",
"end_stop_name":"捷運新埔站(4號出口)",
"transfer_count":9,
"startlng":121.477572,
"startlat":25.024478,
"endlng":121.468559,
"endlat":25.023491
},
{
"start_stop_name":"捷運台電大樓站(2號出口)",
"end_stop_name":"臺大資訊大樓",
"transfer_count":9,
"startlng":121.528552,
"startlat":25.020547,
"endlng":121.54153,
"endlat":25.02101
},
{
"start_stop_name":"中山北新春街口",
"end_stop_name":"捷運淡水站",
"transfer_count":9,
"startlng":121.444742,
"startlat":25.180345,
"endlng":121.444183,
"endlat":25.168826
},
{
"start_stop_name":"鶯歌國中",
"end_stop_name":"鶯歌火車站(仁愛路)",
"transfer_count":10,
"startlng":121.342963,
"startlat":24.951734,
"endlng":121.354376,
"endlat":24.955591
},
{
"start_stop_name":"捷運三重站(3號出口)",
"end_stop_name":"二重國中",
"transfer_count":10,
"startlng":121.484739,
"startlat":25.055883,
"endlng":121.480465,
"endlat":25.065957
},
{
"start_stop_name":"羅斯福新生南路口",
"end_stop_name":"捷運公館站(2號出口)",
"transfer_count":10,
"startlng":121.5331757,
"startlat":25.01603085,
"endlng":121.534538,
"endlat":25.01476
},
{
"start_stop_name":"捷運科技大樓站",
"end_stop_name":"基隆長興路口",
"transfer_count":11,
"startlng":121.543293,
"startlat":25.025896,
"endlng":121.544352,
"endlat":25.017054
},
{
"start_stop_name":"光興國小",
"end_stop_name":"同安公園",
"transfer_count":11,
"startlng":121.500103,
"startlat":25.060339,
"endlng":121.499067,
"endlat":25.05732
},
{
"start_stop_name":"捷運淡水站",
"end_stop_name":"文化機車立體停車場",
"transfer_count":11,
"startlng":121.444183,
"startlat":25.168826,
"endlng":121.438806,
"endlat":25.172485
},
{
"start_stop_name":"捷運台北101\/世貿站",
"end_stop_name":"吳興公車總站",
"transfer_count":11,
"startlng":121.561645,
"startlat":25.032752,
"endlng":121.569836,
"endlat":25.023877
},
{
"start_stop_name":"樹林火車站(後站)",
"end_stop_name":"光華公園",
"transfer_count":12,
"startlng":121.424652,
"startlat":24.992553,
"endlng":121.413157,
"endlat":25.005412
},
{
"start_stop_name":"臺北市立圖書館(總館)",
"end_stop_name":"捷運大安森林公園站",
"transfer_count":13,
"startlng":121.538073,
"startlat":25.028798,
"endlng":121.535161,
"endlat":25.033156
},
{
"start_stop_name":"捷運大橋頭站(2號出口)",
"end_stop_name":"大稻埕公園",
"transfer_count":13,
"startlng":121.512909,
"startlat":25.063404,
"endlng":121.510512,
"endlat":25.059162
},
{
"start_stop_name":"福祥里(中和溝)",
"end_stop_name":"捷運頂溪站(1號出口)",
"transfer_count":13,
"startlng":121.499565,
"startlat":25.005933,
"endlng":121.515271,
"endlat":25.012176
},
{
"start_stop_name":"捷運龍山寺站(1號出口)",
"end_stop_name":"東園國小",
"transfer_count":14,
"startlng":121.50026,
"startlat":25.035479,
"endlng":121.497679,
"endlat":25.023393
},
{
"start_stop_name":"捷運象山站",
"end_stop_name":"松山家商",
"transfer_count":14,
"startlng":121.571274,
"startlat":25.032835,
"endlng":121.579135,
"endlat":25.036084
},
{
"start_stop_name":"新北市政府(新站路)",
"end_stop_name":"板橋第一運動場",
"transfer_count":14,
"startlng":121.466455,
"startlat":25.012614,
"endlng":121.468258,
"endlat":25.009147
},
{
"start_stop_name":"捷運圓山站(2號出口)",
"end_stop_name":"延平國宅",
"transfer_count":15,
"startlng":121.519287,
"startlat":25.071824,
"endlng":121.510306,
"endlat":25.078908
},
{
"start_stop_name":"水河里活動中心",
"end_stop_name":"捷運三民高中站(1號出口)",
"transfer_count":17,
"startlng":121.473913,
"startlat":25.093949,
"endlng":121.472722,
"endlat":25.085815
},
{
"start_stop_name":"捷運後山埤站(1號出口)",
"end_stop_name":"福德公園",
"transfer_count":17,
"startlng":121.58174,
"startlat":25.04431,
"endlng":121.58367,
"endlat":25.03809
},
{
"start_stop_name":"開元市民活動中心",
"end_stop_name":"捷運三重國小站",
"transfer_count":17,
"startlng":121.503557,
"startlat":25.066074,
"endlng":121.497126,
"endlat":25.070418
},
{
"start_stop_name":"鴨母港抽水站",
"end_stop_name":"捷運蘆洲站",
"transfer_count":18,
"startlng":121.456728,
"startlat":25.082935,
"endlng":121.464031,
"endlat":25.091637
},
{
"start_stop_name":"大同國小",
"end_stop_name":"南樹林火車站",
"transfer_count":10,
"startlng":121.416844,
"startlat":24.981146,
"endlng":121.408605,
"endlat":24.980236
},
{
"start_stop_name":"中原公園",
"end_stop_name":"捷運蘆洲站",
"transfer_count":12,
"startlng":121.463894,
"startlat":25.083316,
"endlng":121.464031,
"endlat":25.091637
},
{
"start_stop_name":"捷運板橋站(1號出口)",
"end_stop_name":"縣民民族路口",
"transfer_count":15,
"startlng":121.4619,
"startlat":25.013174,
"endlng":121.461097,
"endlat":25.010012
},
{
"start_stop_name":"明志國中",
"end_stop_name":"聯邦公園",
"transfer_count":0,
"startlng":121.488982,
"startlat":25.063396,
"endlng":121.48371,
"endlat":25.064447
},
{
"start_stop_name":"新莊文化藝術中心",
"end_stop_name":"新泰公園",
"transfer_count":1,
"startlng":121.444453,
"startlat":25.04715,
"endlng":121.444946,
"endlat":25.0372
},
{
"start_stop_name":"台北花木批發市場",
"end_stop_name":"台灣科技大學",
"transfer_count":1,
"startlng":121.54074,
"startlat":25.004023,
"endlng":121.539723,
"endlat":25.0131
},
{
"start_stop_name":"立功立德路口",
"end_stop_name":"關渡自然公園",
"transfer_count":1,
"startlng":121.47148132,
"startlat":25.12537766,
"endlng":121.4691391,
"endlat":25.11929131
},
{
"start_stop_name":"信義建國路口",
"end_stop_name":"臺灣師範大學(圖書館)",
"transfer_count":1,
"startlng":121.53747,
"startlat":25.03293,
"endlng":121.52889,
"endlat":25.02665
},
{
"start_stop_name":"師範大學公館校區",
"end_stop_name":"台灣科技大學",
"transfer_count":2,
"startlng":121.537188,
"startlat":25.007528,
"endlng":121.539723,
"endlat":25.0131
},
{
"start_stop_name":"辛亥新生路口",
"end_stop_name":"臺灣師範大學(圖書館)",
"transfer_count":2,
"startlng":121.53456,
"startlat":25.022413,
"endlng":121.52889,
"endlat":25.02665
},
{
"start_stop_name":"同興公園",
"end_stop_name":"義仁市民活動中心",
"transfer_count":3,
"startlng":121.432128,
"startlat":25.055188,
"endlng":121.427667,
"endlat":25.050479
},
{
"start_stop_name":"仁愛文化二路口",
"end_stop_name":"富貴森林公園",
"transfer_count":3,
"startlng":121.374258,
"startlat":25.077118,
"endlng":121.378464,
"endlat":25.083156
},
{
"start_stop_name":"臺北轉運站",
"end_stop_name":"金山市民路口",
"transfer_count":4,
"startlng":121.520526,
"startlat":25.048222,
"endlng":121.530697,
"endlat":25.045753
},
{
"start_stop_name":"崑崙活力廣場",
"end_stop_name":"溪北公園",
"transfer_count":4,
"startlng":121.43288,
"startlat":24.993901,
"endlng":121.432281,
"endlat":24.99006
},
{
"start_stop_name":"北安大直街口",
"end_stop_name":"文湖國小",
"transfer_count":4,
"startlng":121.549452,
"startlat":25.084223,
"endlng":121.560888,
"endlat":25.086376
},
{
"start_stop_name":"捷運科技大樓站",
"end_stop_name":"台灣科技大學",
"transfer_count":5,
"startlng":121.543293,
"startlat":25.025896,
"endlng":121.539723,
"endlat":25.0131
},
{
"start_stop_name":"捷運台電大樓站(2號出口)",
"end_stop_name":"捷運公館站(2號出口)",
"transfer_count":5,
"startlng":121.528552,
"startlat":25.020547,
"endlng":121.534538,
"endlat":25.01476
},
{
"start_stop_name":"羅斯福新生南路口",
"end_stop_name":"捷運台電大樓站(2號出口)",
"transfer_count":6,
"startlng":121.5331757,
"startlat":25.01603085,
"endlng":121.528552,
"endlat":25.020547
},
{
"start_stop_name":"捷運蘆洲站",
"end_stop_name":"捷運三民高中站(1號出口)",
"transfer_count":6,
"startlng":121.464031,
"startlat":25.091637,
"endlng":121.472722,
"endlat":25.085815
},
{
"start_stop_name":"捷運三和國中站(1號出口)",
"end_stop_name":"永福國小",
"transfer_count":6,
"startlng":121.487795,
"startlat":25.075881,
"endlng":121.480315,
"endlat":25.077714
},
{
"start_stop_name":"捷運善導寺站(1號出口)",
"end_stop_name":"臺北轉運站",
"transfer_count":6,
"startlng":121.5222,
"startlat":25.045267,
"endlng":121.520526,
"endlat":25.048222
},
{
"start_stop_name":"捷運板橋站(3號出口)",
"end_stop_name":"板橋四維公園",
"transfer_count":7,
"startlng":121.462051,
"startlat":25.014797,
"endlng":121.462633,
"endlat":25.025464
},
{
"start_stop_name":"永福國小",
"end_stop_name":"捷運三和國中站(1號出口)",
"transfer_count":7,
"startlng":121.480315,
"startlat":25.077714,
"endlng":121.487795,
"endlat":25.075881
},
{
"start_stop_name":"臺灣師範大學(圖書館)",
"end_stop_name":"捷運科技大樓站",
"transfer_count":7,
"startlng":121.52889,
"startlat":25.02665,
"endlng":121.543293,
"endlat":25.025896
},
{
"start_stop_name":"仁愛林森路口",
"end_stop_name":"捷運臺大醫院(4號出口)",
"transfer_count":8,
"startlng":121.522334,
"startlat":25.038954,
"endlng":121.516428,
"endlat":25.042973
},
{
"start_stop_name":"松山車站",
"end_stop_name":"玉成公園",
"transfer_count":8,
"startlng":121.578095,
"startlat":25.048616,
"endlng":121.5864,
"endlat":25.04287
},
{
"start_stop_name":"板橋車站",
"end_stop_name":"國光里(國光路)",
"transfer_count":8,
"startlng":121.463735,
"startlat":25.015519,
"endlng":121.458308,
"endlat":25.017755
},
{
"start_stop_name":"捷運迴龍站(3號出口)",
"end_stop_name":"龍鳳公園",
"transfer_count":9,
"startlng":121.413053,
"startlat":25.02276,
"endlng":121.41649628,
"endlat":25.02144623
},
{
"start_stop_name":"捷運亞東醫院站(2號出口)",
"end_stop_name":"捷運海山站(3號出口)",
"transfer_count":9,
"startlng":121.452315,
"startlat":24.99783,
"endlng":121.449335,
"endlat":24.986923
},
{
"start_stop_name":"頂溪國小",
"end_stop_name":"保安永平路口",
"transfer_count":9,
"startlng":121.511261,
"startlat":25.015811,
"endlng":121.506471,
"endlat":25.012691
},
{
"start_stop_name":"興華公園",
"end_stop_name":"三重商工",
"transfer_count":10,
"startlng":121.483101,
"startlat":25.060125,
"endlng":121.480705,
"endlat":25.068681
},
{
"start_stop_name":"三重綜合體育館",
"end_stop_name":"重陽國小",
"transfer_count":11,
"startlng":121.491926,
"startlat":25.061446,
"endlng":121.484337,
"endlat":25.066245
},
{
"start_stop_name":"永吉松信路口",
"end_stop_name":"捷運市政府站(3號出口)",
"transfer_count":11,
"startlng":121.57205,
"startlat":25.04543,
"endlng":121.5679044,
"endlat":25.04085789
},
{
"start_stop_name":"板林溪北路口",
"end_stop_name":"崑崙活力廣場",
"transfer_count":11,
"startlng":121.42635,
"startlat":24.990555,
"endlng":121.43288,
"endlat":24.993901
},
{
"start_stop_name":"捷運西門站(3號出口)",
"end_stop_name":"復華花園新城",
"transfer_count":11,
"startlng":121.508693,
"startlat":25.041778,
"endlng":121.502899,
"endlat":25.029705
},
{
"start_stop_name":"景安板南路口",
"end_stop_name":"華夏科技大學",
"transfer_count":12,
"startlng":121.504443,
"startlat":24.992249,
"endlng":121.507652,
"endlat":24.980672
},
{
"start_stop_name":"新北高中",
"end_stop_name":"捷運徐匯中學站(1號出口)",
"transfer_count":12,
"startlng":121.489525,
"startlat":25.087225,
"endlng":121.479852,
"endlat":25.080468
},
{
"start_stop_name":"捷運北門站(3號出口)",
"end_stop_name":"大稻埕公園",
"transfer_count":12,
"startlng":121.510367,
"startlat":25.04993,
"endlng":121.510512,
"endlat":25.059162
},
{
"start_stop_name":"捷運頂溪站(1號出口)",
"end_stop_name":"福祥里(中和溝)",
"transfer_count":12,
"startlng":121.515271,
"startlat":25.012176,
"endlng":121.499565,
"endlat":25.005933
},
{
"start_stop_name":"忠誠里(北新路2段97巷)",
"end_stop_name":"崇光女中",
"transfer_count":12,
"startlng":121.542779,
"startlat":24.974272,
"endlng":121.539554,
"endlat":24.972127
},
{
"start_stop_name":"捷運七張站(1號出口)",
"end_stop_name":"中興寶橋路口",
"transfer_count":12,
"startlng":121.542767,
"startlat":24.974996,
"endlng":121.54687,
"endlat":24.97618
},
{
"start_stop_name":"捷運三民高中站(1號出口)",
"end_stop_name":"水河里活動中心",
"transfer_count":13,
"startlng":121.472722,
"startlat":25.085815,
"endlng":121.473913,
"endlat":25.093949
},
{
"start_stop_name":"中研公園",
"end_stop_name":"捷運南港展覽館站(5號出口)",
"transfer_count":13,
"startlng":121.613706,
"startlat":25.047425,
"endlng":121.61669,
"endlat":25.05469
},
{
"start_stop_name":"捷運圓山站(2號出口)",
"end_stop_name":"葫蘆國小",
"transfer_count":14,
"startlng":121.519287,
"startlat":25.071824,
"endlng":121.507495,
"endlat":25.082538
},
{
"start_stop_name":"捷運三重國小站",
"end_stop_name":"正義公園",
"transfer_count":14,
"startlng":121.497126,
"startlat":25.070418,
"endlng":121.497818,
"endlat":25.068551
},